[
    {
        "pk": 0,
        "model": "api.registrationoffice",
        "link": "/Umzug-Bad-Oeynhausen/Einwohnermeldeamt/",
        "fields": {
            "city": "Bad Oeynhausen",
            "name": "Einwohnermeldeamt Bad Oeynhausen",
            "zipcode": "32545",
            "street": "Ostkorso 8",
            "lat": "52.2001375",
            "lng": "8.7992189"
        }
    },
    {
        "pk": 1,
        "model": "api.registrationoffice",
        "link": "/Umzug-Rheda-Wiedenbrueck/Einwohnermeldeamt/",
        "fields": {
            "city": "Rheda-Wiedenbr\u00fcck",
            "name": "Einwohnermeldeamt Rheda-Wiedenbr\u00fcck",
            "zipcode": "33378",
            "street": "Rathausplatz 13",
            "lat": "51.85348",
            "lng": "8.28988"
        }
    },
    {
        "pk": 2,
        "model": "api.registrationoffice",
        "link": "/Umzug-Bornheim-Rheinland/Einwohnermeldeamt/",
        "fields": {
            "city": "Bornheim",
            "name": "Einwohnermeldeamt Bornheim",
            "zipcode": "53332",
            "street": "Rathausstra\u00dfe 2",
            "lat": "50.75747",
            "lng": "7.00442"
        }
    },
    {
        "pk": 3,
        "model": "api.registrationoffice",
        "link": "/Umzug-Schwarzenberg-Erzgebirge/Einwohnermeldeamt/",
        "fields": {
            "city": "Schwarzenberg",
            "name": "Einwohnermeldeamt Schwarzenberg",
            "zipcode": "08340",
            "street": "Stra\u00dfe der Einheit 20",
            "lat": "50.54622",
            "lng": "12.79222"
        }
    },
    {
        "pk": 4,
        "model": "api.registrationoffice",
        "link": "/Umzug-Lilienthal/Einwohnermeldeamt/",
        "fields": {
            "city": "Lilienthal",
            "name": "Einwohnermeldeamt Lilienthal",
            "zipcode": "28865",
            "street": "Klosterstra\u00dfe 16",
            "lat": "53.1410563",
            "lng": "8.9129832"
        }
    },
    {
        "pk": 5,
        "model": "api.registrationoffice",
        "link": "/Umzug-Much/Einwohnermeldeamt/",
        "fields": {
            "city": "Much",
            "name": "Einwohnermeldeamt Much",
            "zipcode": "53804",
            "street": "Hauptstr. 57",
            "lat": "50.90584",
            "lng": "7.40289"
        }
    },
    {
        "pk": 6,
        "model": "api.registrationoffice",
        "link": "/Umzug-Menden-Sauerland/Einwohnermeldeamt/",
        "fields": {
            "city": "Menden",
            "name": "Einwohnermeldeamt Menden Rathaus",
            "zipcode": "58710",
            "street": "Neumarkt 5",
            "lat": "51.4369598",
            "lng": "7.7942889"
        }
    },
    {
        "pk": 7,
        "model": "api.registrationoffice",
        "link": "/Umzug-Menden-Sauerland/Einwohnermeldeamt/",
        "fields": {
            "city": "Menden",
            "name": "Einwohnermeldeamt Menden Lendringsen",
            "zipcode": "58710",
            "street": "Lendringser Platz 5",
            "lat": "51.4126",
            "lng": "7.8315"
        }
    },
    {
        "pk": 8,
        "model": "api.registrationoffice",
        "link": "/Umzug-Bembsmuehle/Einwohnermeldeamt/",
        "fields": {
            "city": "Neuwied",
            "name": "Einwohnermeldeamt Bembsm\u00fchle",
            "zipcode": "56564",
            "street": "Engerser Landstr. 17",
            "lat": "50.426318",
            "lng": "7.4685704"
        }
    },
    {
        "pk": 9,
        "model": "api.registrationoffice",
        "link": "/Umzug-Geilenkirchen/Einwohnermeldeamt/",
        "fields": {
            "city": "Geilenkirchen",
            "name": "Einwohnermeldeamt Geilenkirchen",
            "zipcode": "52511",
            "street": "Markt 9",
            "lat": "50.96446",
            "lng": "6.12099"
        }
    },
    {
        "pk": 10,
        "model": "api.registrationoffice",
        "link": "/Umzug-Korschenbroich/Einwohnermeldeamt/",
        "fields": {
            "city": "Korschenbroich",
            "name": "Einwohnermeldeamt Korschenbroich",
            "zipcode": "41352",
            "street": "Sebastianusstra\u00dfe 1",
            "lat": "51.18979",
            "lng": "6.51307"
        }
    },
    {
        "pk": 11,
        "model": "api.registrationoffice",
        "link": "/Umzug-Korschenbroich/Einwohnermeldeamt/",
        "fields": {
            "city": "Korschenbroich",
            "name": "Einwohnermeldeamt Korschenbroich Au\u00dfenstelle des B\u00fcrgerb\u00fcros in Glehn",
            "zipcode": "41352",
            "street": "Bachstra\u00dfe 12",
            "lat": "51.16627",
            "lng": "6.57724"
        }
    },
    {
        "pk": 12,
        "model": "api.registrationoffice",
        "link": "/Umzug-Korschenbroich/Einwohnermeldeamt/",
        "fields": {
            "city": "Korschenbroich",
            "name": "Einwohnermeldeamt Korschenbroich Au\u00dfenstelle des B\u00fcrgerb\u00fcros in Kleinenbroich",
            "zipcode": "41352",
            "street": "Ladestra\u00dfe 2",
            "lat": "51.1954962",
            "lng": "6.5519641"
        }
    },
    {
        "pk": 13,
        "model": "api.registrationoffice",
        "link": "/Umzug-Buedingen/Einwohnermeldeamt/",
        "fields": {
            "city": "B\u00fcdingen",
            "name": "Einwohnermeldeamt B\u00fcdingen",
            "zipcode": "63654",
            "street": "Eberhard-Bauner-Allee 16",
            "lat": "50.28963",
            "lng": "9.108337"
        }
    },
    {
        "pk": 14,
        "model": "api.registrationoffice",
        "link": "/Umzug-Breitscheid-Hessen/Einwohnermeldeamt/",
        "fields": {
            "city": "Breitscheid",
            "name": "Einwohnermeldeamt Breitscheid",
            "zipcode": "35767",
            "street": "Rathausstrasse 14",
            "lat": "50.68578",
            "lng": "8.19093"
        }
    },
    {
        "pk": 15,
        "model": "api.registrationoffice",
        "link": "/Umzug-Selters-Taunus/Einwohnermeldeamt/",
        "fields": {
            "city": "Selters",
            "name": "Einwohnermeldeamt Selters",
            "zipcode": "65618",
            "street": "Brunnenstra\u00dfe 46",
            "lat": "50.33352",
            "lng": "8.22653"
        }
    },
    {
        "pk": 16,
        "model": "api.registrationoffice",
        "link": "/Umzug-Buehlertal/Einwohnermeldeamt/",
        "fields": {
            "city": "B\u00fchlertal",
            "name": "Einwohnermeldeamt B\u00fchlertal",
            "zipcode": "77830",
            "street": "Hauptstra\u00dfe 131",
            "lat": "48.68539",
            "lng": "8.18947"
        }
    },
    {
        "pk": 17,
        "model": "api.registrationoffice",
        "link": "/Umzug-Hennigsdorf/Einwohnermeldeamt/",
        "fields": {
            "city": "Hennigsdorf",
            "name": "Einwohnermeldeamt Hennigsdorf",
            "zipcode": "16761",
            "street": "Rathausplatz 1",
            "lat": "52.63736",
            "lng": "13.20662"
        }
    },
    {
        "pk": 18,
        "model": "api.registrationoffice",
        "link": "/Umzug-Duesseldorf/Einwohnermeldeamt/",
        "fields": {
            "city": "D\u00fcsseldorf",
            "name": "Einwohnermeldeamt D\u00fcsseldorf",
            "zipcode": "40200",
            "street": "Willi-Becker-Allee 7",
            "lat": "51.2179347",
            "lng": "6.7953018"
        }
    },
    {
        "pk": 19,
        "model": "api.registrationoffice",
        "link": "/Umzug-Duesseldorf/Einwohnermeldeamt/",
        "fields": {
            "city": "D\u00fcsseldorf",
            "name": "Einwohnermeldeamt D\u00fcsseldorf Benrath",
            "zipcode": "40597",
            "street": "Benrodestr. 46",
            "lat": "51.16409",
            "lng": "6.86477"
        }
    },
    {
        "pk": 20,
        "model": "api.registrationoffice",
        "link": "/Umzug-Duesseldorf/Einwohnermeldeamt/",
        "fields": {
            "city": "D\u00fcsseldorf",
            "name": "Einwohnermeldeamt D\u00fcsseldorf Bilk",
            "zipcode": "40223",
            "street": "Bachstr. 145",
            "lat": "51.2093905",
            "lng": "6.7762068"
        }
    },
    {
        "pk": 21,
        "model": "api.registrationoffice",
        "link": "/Umzug-Duesseldorf/Einwohnermeldeamt/",
        "fields": {
            "city": "D\u00fcsseldorf",
            "name": "Einwohnermeldeamt D\u00fcsseldorf Eller",
            "zipcode": "40229",
            "street": "Gertrudisplatz 8",
            "lat": "51.2006602",
            "lng": "6.8384132"
        }
    },
    {
        "pk": 22,
        "model": "api.registrationoffice",
        "link": "/Umzug-Duesseldorf/Einwohnermeldeamt/",
        "fields": {
            "city": "D\u00fcsseldorf",
            "name": "Einwohnermeldeamt D\u00fcsseldorf Garath",
            "zipcode": "40595",
            "street": "Frankfurter Str. 231",
            "lat": "51.1439128",
            "lng": "6.8991244"
        }
    },
    {
        "pk": 23,
        "model": "api.registrationoffice",
        "link": "/Umzug-Duesseldorf/Einwohnermeldeamt/",
        "fields": {
            "city": "D\u00fcsseldorf",
            "name": "Einwohnermeldeamt D\u00fcsseldorf Gerresheim",
            "zipcode": "40625",
            "street": "Neusser Tor 8",
            "lat": "51.236794",
            "lng": "6.861082"
        }
    },
    {
        "pk": 24,
        "model": "api.registrationoffice",
        "link": "/Umzug-Duesseldorf/Einwohnermeldeamt/",
        "fields": {
            "city": "D\u00fcsseldorf",
            "name": "Einwohnermeldeamt D\u00fcsseldorf Kaiserswerth",
            "zipcode": "40489",
            "street": "Friedrich-von-Spee-Str. 30",
            "lat": "51.30027",
            "lng": "6.73627"
        }
    },
    {
        "pk": 25,
        "model": "api.registrationoffice",
        "link": "/Umzug-Duesseldorf/Einwohnermeldeamt/",
        "fields": {
            "city": "D\u00fcsseldorf",
            "name": "Einwohnermeldeamt D\u00fcsseldorf Oberkassel",
            "zipcode": "40545",
            "street": "Luegallee 65",
            "lat": "51.2311517",
            "lng": "6.7535473"
        }
    },
    {
        "pk": 26,
        "model": "api.registrationoffice",
        "link": "/Umzug-Duesseldorf/Einwohnermeldeamt/",
        "fields": {
            "city": "D\u00fcsseldorf",
            "name": "Einwohnermeldeamt D\u00fcsseldorf Rath",
            "zipcode": "40472",
            "street": "M\u00fcnsterstr. 508",
            "lat": "51.2615591",
            "lng": "6.8096564"
        }
    },
    {
        "pk": 27,
        "model": "api.registrationoffice",
        "link": "/Umzug-Duesseldorf/Einwohnermeldeamt/",
        "fields": {
            "city": "D\u00fcsseldorf",
            "name": "Einwohnermeldeamt D\u00fcsseldorf Unterbach",
            "zipcode": "40627",
            "street": "Breidenplatz 10",
            "lat": "51.2040753",
            "lng": "6.8952844"
        }
    },
    {
        "pk": 28,
        "model": "api.registrationoffice",
        "link": "/Umzug-Duesseldorf/Einwohnermeldeamt/",
        "fields": {
            "city": "D\u00fcsseldorf",
            "name": "Einwohnermeldeamt D\u00fcsseldorf Wersten",
            "zipcode": "40591",
            "street": "Burscheider Str. 29",
            "lat": "51.1885659",
            "lng": "6.8215627"
        }
    },
    {
        "pk": 29,
        "model": "api.registrationoffice",
        "link": "/Umzug-Koenigsbrunn/Einwohnermeldeamt/",
        "fields": {
            "city": "K\u00f6nigsbrunn",
            "name": "Einwohnermeldeamt K\u00f6nigsbrunn",
            "zipcode": "86343",
            "street": "Marktplatz 7",
            "lat": "48.2687645",
            "lng": "10.8909522"
        }
    },
    {
        "pk": 30,
        "model": "api.registrationoffice",
        "link": "/Umzug-Rhauderfehn/Einwohnermeldeamt/",
        "fields": {
            "city": "Rhauderfehn",
            "name": "Einwohnermeldeamt Rhauderfehn",
            "zipcode": "26817",
            "street": "1. S\u00fcdwieke 2a",
            "lat": "53.13539",
            "lng": "7.57439"
        }
    },
    {
        "pk": 31,
        "model": "api.registrationoffice",
        "link": "/Umzug-Langenfeld-Rheinland/Einwohnermeldeamt/",
        "fields": {
            "city": "Langenfeld",
            "name": "Einwohnermeldeamt Langenfeld",
            "zipcode": "40764",
            "street": "Konrad-Adenauer-Platz 1",
            "lat": "51.11309",
            "lng": "6.9514"
        }
    },
    {
        "pk": 32,
        "model": "api.registrationoffice",
        "link": "/Umzug-Frankfurt-am-Main/Einwohnermeldeamt/",
        "fields": {
            "city": "Frankfurt am Main",
            "name": "Einwohnermeldeamt Frankfurt",
            "zipcode": "60313",
            "street": "Zeil 3",
            "lat": "50.1149931",
            "lng": "8.6935319"
        }
    },
    {
        "pk": 33,
        "model": "api.registrationoffice",
        "link": "/Umzug-Frankfurt-am-Main/Einwohnermeldeamt/",
        "fields": {
            "city": "Frankfurt am Main",
            "name": "Einwohnermeldeamt Frankfurt H\u00f6chst",
            "zipcode": "65929",
            "street": "Bolongarostr. 109",
            "lat": "50.1009673",
            "lng": "8.55125"
        }
    },
    {
        "pk": 34,
        "model": "api.registrationoffice",
        "link": "/Umzug-Frankfurt-am-Main/Einwohnermeldeamt/",
        "fields": {
            "city": "Frankfurt am Main",
            "name": "Einwohnermeldeamt Frankfurt Sachsenhausen",
            "zipcode": "60594",
            "street": "Gro\u00dfe Rittergasse 103",
            "lat": "50.1065126",
            "lng": "8.6894216"
        }
    },
    {
        "pk": 35,
        "model": "api.registrationoffice",
        "link": "/Umzug-Frankfurt-am-Main/Einwohnermeldeamt/",
        "fields": {
            "city": "Frankfurt am Main",
            "name": "Einwohnermeldeamt Frankfurt Bergen-Enkheim",
            "zipcode": "60388",
            "street": "Marktstr. 30",
            "lat": "50.15484",
            "lng": "8.75271"
        }
    },
    {
        "pk": 36,
        "model": "api.registrationoffice",
        "link": "/Umzug-Frankfurt-am-Main/Einwohnermeldeamt/",
        "fields": {
            "city": "Frankfurt am Main",
            "name": "Einwohnermeldeamt Frankfurt Dornbusch",
            "zipcode": "60320",
            "street": "Eschersheimer Landstr. 248",
            "lat": "50.1393377",
            "lng": "8.6708888"
        }
    },
    {
        "pk": 37,
        "model": "api.registrationoffice",
        "link": "/Umzug-Frankfurt-am-Main/Einwohnermeldeamt/",
        "fields": {
            "city": "Frankfurt am Main",
            "name": "Einwohnermeldeamt Frankfurt Fechenheim",
            "zipcode": "60386",
            "street": "Pfortenstra\u00dfe 1",
            "lat": "50.12207",
            "lng": "8.77017"
        }
    },
    {
        "pk": 38,
        "model": "api.registrationoffice",
        "link": "/Umzug-Frankfurt-am-Main/Einwohnermeldeamt/",
        "fields": {
            "city": "Frankfurt am Main",
            "name": "Einwohnermeldeamt Frankfurt Harheim",
            "zipcode": "60437",
            "street": "Philipp-Schnell-Str. 52",
            "lat": "50.1820784",
            "lng": "8.6924821"
        }
    },
    {
        "pk": 39,
        "model": "api.registrationoffice",
        "link": "/Umzug-Frankfurt-am-Main/Einwohnermeldeamt/",
        "fields": {
            "city": "Frankfurt am Main",
            "name": "Einwohnermeldeamt Frankfurt Kalbach",
            "zipcode": "60437",
            "street": "Kalbacher Hauptstra\u00dfe 36",
            "lat": "50.1890777",
            "lng": "8.6394975"
        }
    },
    {
        "pk": 40,
        "model": "api.registrationoffice",
        "link": "/Umzug-Frankfurt-am-Main/Einwohnermeldeamt/",
        "fields": {
            "city": "Frankfurt am Main",
            "name": "Einwohnermeldeamt Frankfurt Nieder-Erlenbach",
            "zipcode": "60437",
            "street": "Alt-Erlenbach 42",
            "lat": "50.2033367",
            "lng": "8.709021"
        }
    },
    {
        "pk": 41,
        "model": "api.registrationoffice",
        "link": "/Umzug-Frankfurt-am-Main/Einwohnermeldeamt/",
        "fields": {
            "city": "Frankfurt am Main",
            "name": "Einwohnermeldeamt Frankfurt Nieder-Eschbach",
            "zipcode": "60437",
            "street": "Deuil-La-Barre-Str. 26",
            "lat": "50.19884",
            "lng": "8.67135"
        }
    },
    {
        "pk": 42,
        "model": "api.registrationoffice",
        "link": "/Umzug-Frankfurt-am-Main/Einwohnermeldeamt/",
        "fields": {
            "city": "Frankfurt am Main",
            "name": "Einwohnermeldeamt Frankfurt Nordwest",
            "zipcode": "60439",
            "street": "Nidaforum 5",
            "lat": "50.1584486",
            "lng": "8.6328696"
        }
    },
    {
        "pk": 43,
        "model": "api.registrationoffice",
        "link": "/Umzug-Preussisch-Oldendorf/Einwohnermeldeamt/",
        "fields": {
            "city": "Preu\u00dfisch Oldendorf",
            "name": "Einwohnermeldeamt Preu\u00dfisch Oldendorf",
            "zipcode": "32361",
            "street": "Rathausstra\u00dfe 3",
            "lat": "52.3058",
            "lng": "8.49109"
        }
    },
    {
        "pk": 44,
        "model": "api.registrationoffice",
        "link": "/Umzug-Ueberlingen/Einwohnermeldeamt/",
        "fields": {
            "city": "\u00dcberlingen",
            "name": "Einwohnermeldeamt \u00dcberlingen",
            "zipcode": "88662",
            "street": "B\u00fcrgerservice \"\u00dc Punkt\"",
            "lat": "47.7661746",
            "lng": "9.1702772"
        }
    },
    {
        "pk": 45,
        "model": "api.registrationoffice",
        "link": "/Umzug-Euskirchen/Einwohnermeldeamt/",
        "fields": {
            "city": "Euskirchen",
            "name": "Einwohnermeldeamt Euskirchen",
            "zipcode": "53879",
            "street": "Baumstr. 2",
            "lat": "50.6612695",
            "lng": "6.7857683"
        }
    },
    {
        "pk": 46,
        "model": "api.registrationoffice",
        "link": "/Umzug-Sendenhorst/Einwohnermeldeamt/",
        "fields": {
            "city": "Sendenhorst",
            "name": "Einwohnermeldeamt Sendenhorst",
            "zipcode": "48324",
            "street": "Kirchstra\u00dfe 1",
            "lat": "51.84413",
            "lng": "7.82824"
        }
    },
    {
        "pk": 47,
        "model": "api.registrationoffice",
        "link": "/Umzug-Sendenhorst/Einwohnermeldeamt/",
        "fields": {
            "city": "Sendenhorst",
            "name": "Einwohnermeldeamt Sendenhorst Albersloh",
            "zipcode": "48324",
            "street": "Bahnhofstr. 1",
            "lat": "51.8686442",
            "lng": "7.733869"
        }
    },
    {
        "pk": 48,
        "model": "api.registrationoffice",
        "link": "/Umzug-Naumburg-Saale/Einwohnermeldeamt/",
        "fields": {
            "city": "Naumburg",
            "name": "Einwohnermeldeamt Naumburg",
            "zipcode": "06618",
            "street": "Markt 1",
            "lat": "51.1528272",
            "lng": "11.8093114"
        }
    },
    {
        "pk": 49,
        "model": "api.registrationoffice",
        "link": "/Umzug-Graevenwiesbach/Einwohnermeldeamt/",
        "fields": {
            "city": "Gr\u00e4venwiesbach",
            "name": "Einwohnermeldeamt Gr\u00e4venwiesbach",
            "zipcode": "61279",
            "street": "Bahnhofsweg 2a",
            "lat": "50.38533",
            "lng": "8.45737"
        }
    },
    {
        "pk": 50,
        "model": "api.registrationoffice",
        "link": "/Umzug-Bad-Wildungen/Einwohnermeldeamt/",
        "fields": {
            "city": "Bad Wildungen",
            "name": "Einwohnermeldeamt Bad Wildungen",
            "zipcode": "34537",
            "street": "Am Markt 1",
            "lat": "51.1196745",
            "lng": "9.1241131"
        }
    },
    {
        "pk": 51,
        "model": "api.registrationoffice",
        "link": "/Umzug-Klein-Heikeland/Einwohnermeldeamt/",
        "fields": {
            "city": "S\u00fcdbrookmerland",
            "name": "Einwohnermeldeamt Klein Heikeland",
            "zipcode": "26624",
            "street": "Westvictorburer Stra\u00dfe 2",
            "lat": "53.49272",
            "lng": "7.35852"
        }
    },
    {
        "pk": 52,
        "model": "api.registrationoffice",
        "link": "/Umzug-Welver/Einwohnermeldeamt/",
        "fields": {
            "city": "Welver",
            "name": "Einwohnermeldeamt Welver",
            "zipcode": "59514",
            "street": "Am Markt 4",
            "lat": "51.61663",
            "lng": "7.9556"
        }
    },
    {
        "pk": 53,
        "model": "api.registrationoffice",
        "link": "/Umzug-Offenburg/Einwohnermeldeamt/",
        "fields": {
            "city": "Offenburg",
            "name": "Einwohnermeldeamt Offenburg",
            "zipcode": "77652",
            "street": "Fischmarkt 2",
            "lat": "48.4694744",
            "lng": "7.9430971"
        }
    },
    {
        "pk": 54,
        "model": "api.registrationoffice",
        "link": "/Umzug-Aarbergen/Einwohnermeldeamt/",
        "fields": {
            "city": "Aarbergen",
            "name": "Einwohnermeldeamt Aarbergen",
            "zipcode": "65326",
            "street": "Rathausstr. 1",
            "lat": "50.24663",
            "lng": "8.07218"
        }
    },
    {
        "pk": 55,
        "model": "api.registrationoffice",
        "link": "/Umzug-Weisswasser-Oberlausitz/Einwohnermeldeamt/",
        "fields": {
            "city": "Wei\u00dfwasser",
            "name": "Einwohnermeldeamt Wei\u00dfwasser",
            "zipcode": "02943",
            "street": "B\u00fcrgerb\u00fcro",
            "lat": "51.5043518",
            "lng": "14.6345926"
        }
    },
    {
        "pk": 56,
        "model": "api.registrationoffice",
        "link": "/Umzug-Hilden/Einwohnermeldeamt/",
        "fields": {
            "city": "Hilden",
            "name": "Einwohnermeldeamt Hilden",
            "zipcode": "40721",
            "street": "Am Rathaus 1",
            "lat": "51.16932",
            "lng": "6.93611"
        }
    },
    {
        "pk": 57,
        "model": "api.registrationoffice",
        "link": "/Umzug-Landau-in-der-Pfalz/Einwohnermeldeamt/",
        "fields": {
            "city": "Landau",
            "name": "Einwohnermeldeamt Landau",
            "zipcode": "76829",
            "street": "Marktstra\u00dfe 50",
            "lat": "49.1983494",
            "lng": "8.1116548"
        }
    },
    {
        "pk": 58,
        "model": "api.registrationoffice",
        "link": "/Umzug-Altheim-Alb/Einwohnermeldeamt/",
        "fields": {
            "city": "Altheim (Alb)",
            "name": "Einwohnermeldeamt Altheim",
            "zipcode": "89174",
            "street": "Schmiedgasse 15",
            "lat": "48.5804313",
            "lng": "10.0267892"
        }
    },
    {
        "pk": 59,
        "model": "api.registrationoffice",
        "link": "/Umzug-Dessau-Rosslau/Einwohnermeldeamt/",
        "fields": {
            "city": "Dessau-Ro\u00dflau",
            "name": "Einwohnermeldeamt Dessau-Ro\u00dflau",
            "zipcode": "06844",
            "street": "Zerbster Str. 4",
            "lat": "51.83449",
            "lng": "12.24649"
        }
    },
    {
        "pk": 60,
        "model": "api.registrationoffice",
        "link": "/Umzug-Sankt-Ingbert/Einwohnermeldeamt/",
        "fields": {
            "city": "St. Ingbert",
            "name": "Einwohnermeldeamt St. Ingbert",
            "zipcode": "66386",
            "street": "Am Markt 12",
            "lat": "49.27871",
            "lng": "7.1118"
        }
    },
    {
        "pk": 61,
        "model": "api.registrationoffice",
        "link": "/Umzug-Eschwege/Einwohnermeldeamt/",
        "fields": {
            "city": "Eschwege",
            "name": "Einwohnermeldeamt Eschwege",
            "zipcode": "37269",
            "street": "Obermarkt 22",
            "lat": "51.1870265",
            "lng": "10.057262"
        }
    },
    {
        "pk": 62,
        "model": "api.registrationoffice",
        "link": "/Umzug-Nuembrecht/Einwohnermeldeamt/",
        "fields": {
            "city": "N\u00fcmbrecht",
            "name": "Einwohnermeldeamt N\u00fcmbrecht",
            "zipcode": "51588",
            "street": "Hauptstr. 16",
            "lat": "50.90563",
            "lng": "7.54228"
        }
    },
    {
        "pk": 63,
        "model": "api.registrationoffice",
        "link": "/Umzug-Sondershausen/Einwohnermeldeamt/",
        "fields": {
            "city": "Sondershausen",
            "name": "Einwohnermeldeamt Sondershausen",
            "zipcode": "99706",
            "street": "Carl-Schroeder-Stra\u00dfe 9",
            "lat": "51.37073",
            "lng": "10.87135"
        }
    },
    {
        "pk": 64,
        "model": "api.registrationoffice",
        "link": "/Umzug-Neckargemuend/Einwohnermeldeamt/",
        "fields": {
            "city": "Neckargem\u00fcnd",
            "name": "Einwohnermeldeamt Neckargem\u00fcnd",
            "zipcode": "69151",
            "street": "Bahnhofstr. 54",
            "lat": "49.3946587",
            "lng": "8.789284"
        }
    },
    {
        "pk": 65,
        "model": "api.registrationoffice",
        "link": "/Umzug-Moenchengladbach/Einwohnermeldeamt/",
        "fields": {
            "city": "M\u00f6nchengladbach",
            "name": "Einwohnermeldeamt M\u00f6nchengladbach Stadtmitte",
            "zipcode": "41050",
            "street": "Fliethstr. 86-88",
            "lat": "51.19014",
            "lng": "6.43893"
        }
    },
    {
        "pk": 66,
        "model": "api.registrationoffice",
        "link": "/Umzug-Moenchengladbach/Einwohnermeldeamt/",
        "fields": {
            "city": "M\u00f6nchengladbach",
            "name": "Einwohnermeldeamt M\u00f6nchengladbach Giesenkirchen",
            "zipcode": "41238",
            "street": "Konstantinplatz 19",
            "lat": "51.15548",
            "lng": "6.49169"
        }
    },
    {
        "pk": 67,
        "model": "api.registrationoffice",
        "link": "/Umzug-Moenchengladbach/Einwohnermeldeamt/",
        "fields": {
            "city": "M\u00f6nchengladbach",
            "name": "Einwohnermeldeamt M\u00f6nchengladbach Hardt",
            "zipcode": "41169",
            "street": "Vorster Str. 443",
            "lat": "51.20243",
            "lng": "6.34515"
        }
    },
    {
        "pk": 68,
        "model": "api.registrationoffice",
        "link": "/Umzug-Moenchengladbach/Einwohnermeldeamt/",
        "fields": {
            "city": "M\u00f6nchengladbach",
            "name": "Einwohnermeldeamt M\u00f6nchengladbach Neuwerk",
            "zipcode": "41066",
            "street": "Liebfrauenstr. 52",
            "lat": "51.2244986",
            "lng": "6.4687164"
        }
    },
    {
        "pk": 69,
        "model": "api.registrationoffice",
        "link": "/Umzug-Moenchengladbach/Einwohnermeldeamt/",
        "fields": {
            "city": "M\u00f6nchengladbach",
            "name": "Einwohnermeldeamt M\u00f6nchengladbach Odenkirchen",
            "zipcode": "41199",
            "street": "Wingertsplatz 1",
            "lat": "51.1342636",
            "lng": "6.4518091"
        }
    },
    {
        "pk": 70,
        "model": "api.registrationoffice",
        "link": "/Umzug-Moenchengladbach/Einwohnermeldeamt/",
        "fields": {
            "city": "M\u00f6nchengladbach",
            "name": "Einwohnermeldeamt M\u00f6nchengladbach Rheindahlen",
            "zipcode": "41179",
            "street": "Plektrudisstra\u00dfe 25-27",
            "lat": "51.1486157",
            "lng": "6.363534"
        }
    },
    {
        "pk": 71,
        "model": "api.registrationoffice",
        "link": "/Umzug-Moenchengladbach/Einwohnermeldeamt/",
        "fields": {
            "city": "M\u00f6nchengladbach",
            "name": "Einwohnermeldeamt M\u00f6nchengladbach Rheydt",
            "zipcode": "41236",
            "street": "Markt 11e",
            "lat": "51.1672264",
            "lng": "6.4458515"
        }
    },
    {
        "pk": 72,
        "model": "api.registrationoffice",
        "link": "/Umzug-Moenchengladbach/Einwohnermeldeamt/",
        "fields": {
            "city": "M\u00f6nchengladbach",
            "name": "Einwohnermeldeamt M\u00f6nchengladbach Wickrath",
            "zipcode": "41189",
            "street": "Klosterstr. 8",
            "lat": "51.1297095",
            "lng": "6.412414"
        }
    },
    {
        "pk": 73,
        "model": "api.registrationoffice",
        "link": "/Umzug-Coswig-Anhalt/Einwohnermeldeamt/",
        "fields": {
            "city": "Coswig",
            "name": "Einwohnermeldeamt Coswig",
            "zipcode": "06869",
            "street": "Am Markt 1",
            "lat": "51.8822147",
            "lng": "12.4569104"
        }
    },
    {
        "pk": 74,
        "model": "api.registrationoffice",
        "link": "/Umzug-Magdeburg/Einwohnermeldeamt/",
        "fields": {
            "city": "Magdeburg",
            "name": "Einwohnermeldeamt Magdeburg Mitte",
            "zipcode": "39104",
            "street": "Breiter Weg 222",
            "lat": "52.1236847",
            "lng": "11.6306832"
        }
    },
    {
        "pk": 75,
        "model": "api.registrationoffice",
        "link": "/Umzug-Magdeburg/Einwohnermeldeamt/",
        "fields": {
            "city": "Magdeburg",
            "name": "Einwohnermeldeamt Magdeburg Mobiles B\u00fcrgerB\u00fcro MoBB",
            "zipcode": "39130",
            "street": "Bruno-Beye-Ring 50",
            "lat": "52.14459",
            "lng": "11.57999"
        }
    },
    {
        "pk": 76,
        "model": "api.registrationoffice",
        "link": "/Umzug-Magdeburg/Einwohnermeldeamt/",
        "fields": {
            "city": "Magdeburg",
            "name": "Einwohnermeldeamt Magdeburg Nord",
            "zipcode": "39124",
            "street": "L\u00fcbecker Str. 32",
            "lat": "52.1588",
            "lng": "11.63435"
        }
    },
    {
        "pk": 77,
        "model": "api.registrationoffice",
        "link": "/Umzug-Magdeburg/Einwohnermeldeamt/",
        "fields": {
            "city": "Magdeburg",
            "name": "Einwohnermeldeamt Magdeburg Ost",
            "zipcode": "39114",
            "street": "Tessenowstra\u00dfe 15",
            "lat": "52.13336",
            "lng": "11.67249"
        }
    },
    {
        "pk": 78,
        "model": "api.registrationoffice",
        "link": "/Umzug-Magdeburg/Einwohnermeldeamt/",
        "fields": {
            "city": "Magdeburg",
            "name": "Einwohnermeldeamt Magdeburg S\u00fcd",
            "zipcode": "39118",
            "street": "Otto-Baer-Str. 8",
            "lat": "52.08979",
            "lng": "11.61227"
        }
    },
    {
        "pk": 79,
        "model": "api.registrationoffice",
        "link": "/Umzug-Magdeburg/Einwohnermeldeamt/",
        "fields": {
            "city": "Magdeburg",
            "name": "Einwohnermeldeamt Magdeburg West",
            "zipcode": "39130",
            "street": "Bruno-Beye-Ring 50",
            "lat": "52.14459",
            "lng": "11.57999"
        }
    },
    {
        "pk": 80,
        "model": "api.registrationoffice",
        "link": "/Umzug-Kolbermoor/Einwohnermeldeamt/",
        "fields": {
            "city": "Kolbermoor",
            "name": "Einwohnermeldeamt Kolbermoor",
            "zipcode": "83059",
            "street": "Rosenheimer Str. 30b",
            "lat": "47.8496485",
            "lng": "12.0685416"
        }
    },
    {
        "pk": 81,
        "model": "api.registrationoffice",
        "link": "/Umzug-Lippetal/Einwohnermeldeamt/",
        "fields": {
            "city": "Lippetal",
            "name": "Einwohnermeldeamt Lippetal",
            "zipcode": "59510",
            "street": "Bahnhofstra\u00dfe 15",
            "lat": "51.6572617",
            "lng": "8.1406741"
        }
    },
    {
        "pk": 82,
        "model": "api.registrationoffice",
        "link": "/Umzug-Nideggen/Einwohnermeldeamt/",
        "fields": {
            "city": "Nideggen",
            "name": "Einwohnermeldeamt Nideggen",
            "zipcode": "52385",
            "street": "Z\u00fclpicher Stra\u00dfe 1",
            "lat": "50.68981",
            "lng": "6.48211"
        }
    },
    {
        "pk": 83,
        "model": "api.registrationoffice",
        "link": "/Umzug-Neuenrade/Einwohnermeldeamt/",
        "fields": {
            "city": "Neuenrade",
            "name": "Einwohnermeldeamt Neuenrade",
            "zipcode": "58809",
            "street": "Alte Burg 1",
            "lat": "51.2847342",
            "lng": "7.7950369"
        }
    },
    {
        "pk": 84,
        "model": "api.registrationoffice",
        "link": "/Umzug-Odenthal/Einwohnermeldeamt/",
        "fields": {
            "city": "Odenthal",
            "name": "Einwohnermeldeamt Odenthal",
            "zipcode": "51519",
            "street": "Bergisch Gladbacher Str. 2",
            "lat": "51.03193",
            "lng": "7.11663"
        }
    },
    {
        "pk": 85,
        "model": "api.registrationoffice",
        "link": "/Umzug-Rottweil/Einwohnermeldeamt/",
        "fields": {
            "city": "Rottweil",
            "name": "Einwohnermeldeamt Rottweil",
            "zipcode": "78628",
            "street": "Hauptstra\u00dfe 21",
            "lat": "48.1676748",
            "lng": "8.625333"
        }
    },
    {
        "pk": 86,
        "model": "api.registrationoffice",
        "link": "/Umzug-Bestwig/Einwohnermeldeamt/",
        "fields": {
            "city": "Bestwig",
            "name": "Einwohnermeldeamt Bestwig",
            "zipcode": "59909",
            "street": "Rathausplatz 1",
            "lat": "51.36087",
            "lng": "8.40147"
        }
    },
    {
        "pk": 87,
        "model": "api.registrationoffice",
        "link": "/Umzug-Vlotho/Einwohnermeldeamt/",
        "fields": {
            "city": "Vlotho",
            "name": "Einwohnermeldeamt Vlotho",
            "zipcode": "32602",
            "street": "Lange Stra\u00dfe 60",
            "lat": "52.1699",
            "lng": "8.86422"
        }
    },
    {
        "pk": 88,
        "model": "api.registrationoffice",
        "link": "/Umzug-Borgholzhausen/Einwohnermeldeamt/",
        "fields": {
            "city": "Borgholzhausen",
            "name": "Einwohnermeldeamt Borgholzhausen",
            "zipcode": "33829",
            "street": "Schulstr. 5",
            "lat": "52.10351",
            "lng": "8.30371"
        }
    },
    {
        "pk": 89,
        "model": "api.registrationoffice",
        "link": "/Umzug-Renchen/Einwohnermeldeamt/",
        "fields": {
            "city": "Renchen",
            "name": "Einwohnermeldeamt Renchen",
            "zipcode": "77871",
            "street": "Hauptstra\u00dfe 52",
            "lat": "48.5863989",
            "lng": "8.0114893"
        }
    },
    {
        "pk": 90,
        "model": "api.registrationoffice",
        "link": "/Umzug-Solingen/Einwohnermeldeamt/",
        "fields": {
            "city": "Solingen",
            "name": "Einwohnermeldeamt Solingen Clemensgalerien",
            "zipcode": "42651",
            "street": "Mummstr. 10",
            "lat": "51.1735183",
            "lng": "7.0840662"
        }
    },
    {
        "pk": 91,
        "model": "api.registrationoffice",
        "link": "/Umzug-Solingen/Einwohnermeldeamt/",
        "fields": {
            "city": "Solingen",
            "name": "Einwohnermeldeamt Solingen H\u00f6hscheid",
            "zipcode": "42657",
            "street": "Gasstr. 22",
            "lat": "51.160523",
            "lng": "7.0786577"
        }
    },
    {
        "pk": 92,
        "model": "api.registrationoffice",
        "link": "/Umzug-Solingen/Einwohnermeldeamt/",
        "fields": {
            "city": "Solingen",
            "name": "Einwohnermeldeamt Solingen Ohligs",
            "zipcode": "42697",
            "street": "Kieler Stra\u00dfe 15",
            "lat": "51.1591304",
            "lng": "7.0034015"
        }
    },
    {
        "pk": 93,
        "model": "api.registrationoffice",
        "link": "/Umzug-Ellwangen-Jagst/Einwohnermeldeamt/",
        "fields": {
            "city": "Ellwangen",
            "name": "Einwohnermeldeamt Ellwangen",
            "zipcode": "73479",
            "street": "B\u00fcrgerb\u00fcro",
            "lat": "48.9670119",
            "lng": "10.136892"
        }
    },
    {
        "pk": 94,
        "model": "api.registrationoffice",
        "link": "/Umzug-Duelmen/Einwohnermeldeamt/",
        "fields": {
            "city": "D\u00fclmen",
            "name": "Einwohnermeldeamt D\u00fclmen",
            "zipcode": "48249",
            "street": "Markt 1-3",
            "lat": "51.82929",
            "lng": "7.27767"
        }
    },
    {
        "pk": 95,
        "model": "api.registrationoffice",
        "link": "/Umzug-Duelmen/Einwohnermeldeamt/",
        "fields": {
            "city": "D\u00fclmen",
            "name": "Einwohnermeldeamt D\u00fclmen Buldern",
            "zipcode": "48249",
            "street": "Weseler Str. 62",
            "lat": "51.8646739",
            "lng": "7.3679268"
        }
    },
    {
        "pk": 96,
        "model": "api.registrationoffice",
        "link": "/Umzug-Duelmen/Einwohnermeldeamt/",
        "fields": {
            "city": "D\u00fclmen",
            "name": "Einwohnermeldeamt D\u00fclmen Rorup",
            "zipcode": "48249",
            "street": "Hauptstr. 56",
            "lat": "51.90062",
            "lng": "7.27186"
        }
    },
    {
        "pk": 97,
        "model": "api.registrationoffice",
        "link": "/Umzug-Nastaetten/Einwohnermeldeamt/",
        "fields": {
            "city": "Nast\u00e4tten",
            "name": "Einwohnermeldeamt Nast\u00e4tten",
            "zipcode": "56355",
            "street": "Bahnhofsstra\u00dfe 1",
            "lat": "50.1985384",
            "lng": "7.8551587"
        }
    },
    {
        "pk": 98,
        "model": "api.registrationoffice",
        "link": "/Umzug-Rheinstetten/Einwohnermeldeamt/",
        "fields": {
            "city": "Rheinstetten",
            "name": "Einwohnermeldeamt Rheinstetten",
            "zipcode": "76287",
            "street": "Rappenw\u00f6rthstra\u00dfe 49",
            "lat": "48.9684717",
            "lng": "8.3056717"
        }
    },
    {
        "pk": 99,
        "model": "api.registrationoffice",
        "link": "/Umzug-Friedberg-Hessen/Einwohnermeldeamt/",
        "fields": {
            "city": "Friedberg",
            "name": "Einwohnermeldeamt Friedberg",
            "zipcode": "61169",
            "street": "Mainzer-Tor-Anlage 6",
            "lat": "50.33245",
            "lng": "8.75594"
        }
    },
    {
        "pk": 100,
        "model": "api.registrationoffice",
        "link": "/Umzug-Wachtendonk/Einwohnermeldeamt/",
        "fields": {
            "city": "Wachtendonk",
            "name": "Einwohnermeldeamt Wachtendonk",
            "zipcode": "47669",
            "street": "Weinstra\u00dfe 1",
            "lat": "51.4070415",
            "lng": "6.3357118"
        }
    },
    {
        "pk": 101,
        "model": "api.registrationoffice",
        "link": "/Umzug-Bad-Schwartau/Einwohnermeldeamt/",
        "fields": {
            "city": "Bad Schwartau",
            "name": "Einwohnermeldeamt Bad Schwartau",
            "zipcode": "23611",
            "street": "Markt 15",
            "lat": "53.9200962",
            "lng": "10.6976845"
        }
    },
    {
        "pk": 102,
        "model": "api.registrationoffice",
        "link": "/Umzug-Fulda/Einwohnermeldeamt/",
        "fields": {
            "city": "Fulda",
            "name": "Einwohnermeldeamt Fulda",
            "zipcode": "36037",
            "street": "Schlossstr. 1",
            "lat": "50.5539726",
            "lng": "9.6763889"
        }
    },
    {
        "pk": 103,
        "model": "api.registrationoffice",
        "link": "/Umzug-Eberswalde/Einwohnermeldeamt/",
        "fields": {
            "city": "Eberswalde",
            "name": "Einwohnermeldeamt Eberswalde",
            "zipcode": "16225",
            "street": "Breite Stra\u00dfe 41-44",
            "lat": "52.83472",
            "lng": "13.82088"
        }
    },
    {
        "pk": 104,
        "model": "api.registrationoffice",
        "link": "/Umzug-Mundelsheim/Einwohnermeldeamt/",
        "fields": {
            "city": "Mundelsheim",
            "name": "Einwohnermeldeamt Mundelsheim",
            "zipcode": "74395",
            "street": "Hindenburgstra\u00dfe 1",
            "lat": "49.00097",
            "lng": "9.20665"
        }
    },
    {
        "pk": 105,
        "model": "api.registrationoffice",
        "link": "/Umzug-Marsberg/Einwohnermeldeamt/",
        "fields": {
            "city": "Marsberg",
            "name": "Einwohnermeldeamt Marsberg",
            "zipcode": "34431",
            "street": "Lillers- Stra\u00dfe 8",
            "lat": "51.4621559",
            "lng": "8.8499954"
        }
    },
    {
        "pk": 106,
        "model": "api.registrationoffice",
        "link": "/Umzug-Steinhagen-Westfalen/Einwohnermeldeamt/",
        "fields": {
            "city": "Steinhagen",
            "name": "Einwohnermeldeamt Steinhagen",
            "zipcode": "33803",
            "street": "Am Pulverbach 25",
            "lat": "52.00715",
            "lng": "8.41823"
        }
    },
    {
        "pk": 107,
        "model": "api.registrationoffice",
        "link": "/Umzug-Grosserkmannsdorf/Einwohnermeldeamt/",
        "fields": {
            "city": "Radeberg",
            "name": "Einwohnermeldeamt Gro\u00dferkmannsdorf",
            "zipcode": "01454",
            "street": "Markt 17-19",
            "lat": "51.1184451",
            "lng": "13.9227149"
        }
    },
    {
        "pk": 108,
        "model": "api.registrationoffice",
        "link": "/Umzug-Bautzen/Einwohnermeldeamt/",
        "fields": {
            "city": "Bautzen",
            "name": "Einwohnermeldeamt Bautzen",
            "zipcode": "02625",
            "street": "Innere Lauenstra\u00dfe 1",
            "lat": "51.1809",
            "lng": "14.42369"
        }
    },
    {
        "pk": 109,
        "model": "api.registrationoffice",
        "link": "/Umzug-Gilching/Einwohnermeldeamt/",
        "fields": {
            "city": "Gilching",
            "name": "Einwohnermeldeamt Gilching",
            "zipcode": "82205",
            "street": "Rathausstr. 2",
            "lat": "48.1105129",
            "lng": "11.3010239"
        }
    },
    {
        "pk": 110,
        "model": "api.registrationoffice",
        "link": "/Umzug-Metelen/Einwohnermeldeamt/",
        "fields": {
            "city": "Metelen",
            "name": "Einwohnermeldeamt Metelen",
            "zipcode": "48629",
            "street": "Sendplatz 18",
            "lat": "52.14381",
            "lng": "7.21451"
        }
    },
    {
        "pk": 111,
        "model": "api.registrationoffice",
        "link": "/Umzug-Loehne/Einwohnermeldeamt/",
        "fields": {
            "city": "L\u00f6hne",
            "name": "Einwohnermeldeamt L\u00f6hne",
            "zipcode": "32584",
            "street": "Oeynhausener Str. 41",
            "lat": "52.1992402",
            "lng": "8.7242806"
        }
    },
    {
        "pk": 112,
        "model": "api.registrationoffice",
        "link": "/Umzug-Herdecke/Einwohnermeldeamt/",
        "fields": {
            "city": "Herdecke",
            "name": "Einwohnermeldeamt Herdecke",
            "zipcode": "58313",
            "street": "Kirchplatz 3",
            "lat": "51.40012",
            "lng": "7.4323"
        }
    },
    {
        "pk": 113,
        "model": "api.registrationoffice",
        "link": "/Umzug-Uelzen/Einwohnermeldeamt/",
        "fields": {
            "city": "Uelzen",
            "name": "Einwohnermeldeamt Uelzen",
            "zipcode": "29525",
            "street": "Herzogenplatz 2",
            "lat": "52.96265",
            "lng": "10.55859"
        }
    },
    {
        "pk": 114,
        "model": "api.registrationoffice",
        "link": "/Umzug-Nordhorn/Einwohnermeldeamt/",
        "fields": {
            "city": "Nordhorn",
            "name": "Einwohnermeldeamt Nordhorn",
            "zipcode": "48529",
            "street": "Bahnhofstr. 24",
            "lat": "52.4333264",
            "lng": "7.0676066"
        }
    },
    {
        "pk": 115,
        "model": "api.registrationoffice",
        "link": "/Umzug-Titz/Einwohnermeldeamt/",
        "fields": {
            "city": "Titz",
            "name": "Einwohnermeldeamt Titz",
            "zipcode": "52445",
            "street": "Landstr. 4",
            "lat": "51.00304",
            "lng": "6.42481"
        }
    },
    {
        "pk": 116,
        "model": "api.registrationoffice",
        "link": "/Umzug-Elz/Einwohnermeldeamt/",
        "fields": {
            "city": "Elz",
            "name": "Einwohnermeldeamt Elz",
            "zipcode": "65604",
            "street": "Rathausstra\u00dfe 39",
            "lat": "50.41331",
            "lng": "8.03557"
        }
    },
    {
        "pk": 117,
        "model": "api.registrationoffice",
        "link": "/Umzug-Siegburg/Einwohnermeldeamt/",
        "fields": {
            "city": "Siegburg",
            "name": "Einwohnermeldeamt Siegburg",
            "zipcode": "53721",
            "street": "Nogenter Platz 10",
            "lat": "50.7978484",
            "lng": "7.2064602"
        }
    },
    {
        "pk": 118,
        "model": "api.registrationoffice",
        "link": "/Umzug-Glauchau/Einwohnermeldeamt/",
        "fields": {
            "city": "Glauchau",
            "name": "Einwohnermeldeamt Glauchau",
            "zipcode": "08371",
            "street": "Markt 1",
            "lat": "50.81735",
            "lng": "12.54174"
        }
    },
    {
        "pk": 119,
        "model": "api.registrationoffice",
        "link": "/Umzug-Hockenheim/Einwohnermeldeamt/",
        "fields": {
            "city": "Hockenheim",
            "name": "Einwohnermeldeamt Hockenheim",
            "zipcode": "68766",
            "street": "Rathausstr. 1",
            "lat": "49.31809",
            "lng": "8.54867"
        }
    },
    {
        "pk": 120,
        "model": "api.registrationoffice",
        "link": "/Umzug-Ahaus/Einwohnermeldeamt/",
        "fields": {
            "city": "Ahaus",
            "name": "Einwohnermeldeamt Ahaus",
            "zipcode": "48683",
            "street": "Rathausplatz 1",
            "lat": "52.0739063",
            "lng": "7.0078812"
        }
    },
    {
        "pk": 121,
        "model": "api.registrationoffice",
        "link": "/Umzug-Rheine/Einwohnermeldeamt/",
        "fields": {
            "city": "Rheine",
            "name": "Einwohnermeldeamt Rheine",
            "zipcode": "48431",
            "street": "Klosterstr. 14",
            "lat": "52.2777516",
            "lng": "7.4365373"
        }
    },
    {
        "pk": 122,
        "model": "api.registrationoffice",
        "link": "/Umzug-Rheine/Einwohnermeldeamt/",
        "fields": {
            "city": "Rheine",
            "name": "Einwohnermeldeamt Rheine Mesum",
            "zipcode": "48432",
            "street": "Nielandstr. 7",
            "lat": "52.23086",
            "lng": "7.49082"
        }
    },
    {
        "pk": 123,
        "model": "api.registrationoffice",
        "link": "/Umzug-Donauwoerth/Einwohnermeldeamt/",
        "fields": {
            "city": "Donauw\u00f6rth",
            "name": "Einwohnermeldeamt Donauw\u00f6rth",
            "zipcode": "86609",
            "street": "Rathausgasse 1",
            "lat": "48.71815",
            "lng": "10.78094"
        }
    },
    {
        "pk": 124,
        "model": "api.registrationoffice",
        "link": "/Umzug-Halle-Westfalen/Einwohnermeldeamt/",
        "fields": {
            "city": "Halle",
            "name": "Einwohnermeldeamt Halle",
            "zipcode": "33790",
            "street": "Ravensberger Str. 1",
            "lat": "52.059177",
            "lng": "8.359469"
        }
    },
    {
        "pk": 125,
        "model": "api.registrationoffice",
        "link": "/Umzug-Bad-Friedrichshall/Einwohnermeldeamt/",
        "fields": {
            "city": "Bad Friedrichshall",
            "name": "Einwohnermeldeamt Bad Friedrichshall",
            "zipcode": "74177",
            "street": "Rathausplatz 1",
            "lat": "49.22756",
            "lng": "9.21026"
        }
    },
    {
        "pk": 126,
        "model": "api.registrationoffice",
        "link": "/Umzug-Lotte/Einwohnermeldeamt/",
        "fields": {
            "city": "Lotte",
            "name": "Einwohnermeldeamt Lotte",
            "zipcode": "49504",
            "street": "Westerkappelner Str. 19",
            "lat": "52.31351",
            "lng": "7.94006"
        }
    },
    {
        "pk": 127,
        "model": "api.registrationoffice",
        "link": "/Umzug-Sachsenheim/Einwohnermeldeamt/",
        "fields": {
            "city": "Sachsenheim",
            "name": "Einwohnermeldeamt Sachsenheim",
            "zipcode": "74343",
            "street": "\u00c4u\u00dferer Schlo\u00dfhof 3 und 5",
            "lat": "48.9603579",
            "lng": "9.0643208"
        }
    },
    {
        "pk": 128,
        "model": "api.registrationoffice",
        "link": "/Umzug-Bedburg-Hau/Einwohnermeldeamt/",
        "fields": {
            "city": "Bedburg-Hau",
            "name": "Einwohnermeldeamt Bedburg-Hau",
            "zipcode": "47551",
            "street": "Rathausplatz 1",
            "lat": "51.76258",
            "lng": "6.18803"
        }
    },
    {
        "pk": 129,
        "model": "api.registrationoffice",
        "link": "/Umzug-Weilmuenster/Einwohnermeldeamt/",
        "fields": {
            "city": "Weilm\u00fcnster",
            "name": "Einwohnermeldeamt Weilm\u00fcnster",
            "zipcode": "35789",
            "street": "Rathausplatz 8",
            "lat": "50.43156",
            "lng": "8.37176"
        }
    },
    {
        "pk": 130,
        "model": "api.registrationoffice",
        "link": "/Umzug-Freudenberg-Westfalen/Einwohnermeldeamt/",
        "fields": {
            "city": "Freudenberg",
            "name": "Einwohnermeldeamt Freudenberg",
            "zipcode": "57251",
            "street": "M\u00f3rer Platz 1",
            "lat": "50.8962943",
            "lng": "7.873034"
        }
    },
    {
        "pk": 131,
        "model": "api.registrationoffice",
        "link": "/Umzug-Niederzier/Einwohnermeldeamt/",
        "fields": {
            "city": "Niederzier",
            "name": "Einwohnermeldeamt Niederzier",
            "zipcode": "52382",
            "street": "Rathausstra\u00dfe 8",
            "lat": "50.88507",
            "lng": "6.46152"
        }
    },
    {
        "pk": 132,
        "model": "api.registrationoffice",
        "link": "/Umzug-Aue/Einwohnermeldeamt/",
        "fields": {
            "city": "Aue",
            "name": "Einwohnermeldeamt Aue",
            "zipcode": "08280",
            "street": "Goethestra\u00dfe 5",
            "lat": "50.58727",
            "lng": "12.69852"
        }
    },
    {
        "pk": 133,
        "model": "api.registrationoffice",
        "link": "/Umzug-Juelich/Einwohnermeldeamt/",
        "fields": {
            "city": "J\u00fclich",
            "name": "Einwohnermeldeamt J\u00fclich",
            "zipcode": "52428",
            "street": "Gro\u00dfe Rurstra\u00dfe 17",
            "lat": "50.92136",
            "lng": "6.36263"
        }
    },
    {
        "pk": 134,
        "model": "api.registrationoffice",
        "link": "/Umzug-Waldbrunn-Westerwald/Einwohnermeldeamt/",
        "fields": {
            "city": "Waldbrunn",
            "name": "Einwohnermeldeamt Waldbrunn",
            "zipcode": "65620",
            "street": "Hauser Kirchweg",
            "lat": "50.52551",
            "lng": "8.09731"
        }
    },
    {
        "pk": 135,
        "model": "api.registrationoffice",
        "link": "/Umzug-Westerstede/Einwohnermeldeamt/",
        "fields": {
            "city": "Westerstede",
            "name": "Einwohnermeldeamt Westerstede",
            "zipcode": "26655",
            "street": "B\u00fcrgerb\u00fcro",
            "lat": "53.2550728",
            "lng": "7.926366"
        }
    },
    {
        "pk": 136,
        "model": "api.registrationoffice",
        "link": "/Umzug-Saarlouis/Einwohnermeldeamt/",
        "fields": {
            "city": "Saarlouis",
            "name": "Einwohnermeldeamt Saarlouis",
            "zipcode": "66740",
            "street": "Gro\u00dfer Markt 1",
            "lat": "49.31637",
            "lng": "6.75023"
        }
    },
    {
        "pk": 137,
        "model": "api.registrationoffice",
        "link": "/Umzug-Bueckeburg/Einwohnermeldeamt/",
        "fields": {
            "city": "B\u00fcckeburg",
            "name": "Einwohnermeldeamt B\u00fcckeburg",
            "zipcode": "31675",
            "street": "Marktplatz 3",
            "lat": "52.2607818",
            "lng": "9.0461952"
        }
    },
    {
        "pk": 138,
        "model": "api.registrationoffice",
        "link": "/Umzug-Luedenscheid/Einwohnermeldeamt/",
        "fields": {
            "city": "L\u00fcdenscheid",
            "name": "Einwohnermeldeamt L\u00fcdenscheid",
            "zipcode": "58507",
            "street": "Rathausplatz 2",
            "lat": "51.21719",
            "lng": "7.62941"
        }
    },
    {
        "pk": 139,
        "model": "api.registrationoffice",
        "link": "/Umzug-Ruedesheim-am-Rhein/Einwohnermeldeamt/",
        "fields": {
            "city": "R\u00fcdesheim",
            "name": "Einwohnermeldeamt R\u00fcdesheim am Rhein",
            "zipcode": "65385",
            "street": "Markt 16",
            "lat": "49.9789582",
            "lng": "7.9237042"
        }
    },
    {
        "pk": 140,
        "model": "api.registrationoffice",
        "link": "/Umzug-Sinsheim/Einwohnermeldeamt/",
        "fields": {
            "city": "Sinsheim",
            "name": "Einwohnermeldeamt Sinsheim",
            "zipcode": "74889",
            "street": "Wilhelmstra\u00dfe 14-18",
            "lat": "49.25376",
            "lng": "8.8794"
        }
    },
    {
        "pk": 141,
        "model": "api.registrationoffice",
        "link": "/Umzug-Kierspe/Einwohnermeldeamt/",
        "fields": {
            "city": "Kierspe",
            "name": "Einwohnermeldeamt Kierspe",
            "zipcode": "58566",
            "street": "Springerweg 21",
            "lat": "51.12786",
            "lng": "7.60146"
        }
    },
    {
        "pk": 142,
        "model": "api.registrationoffice",
        "link": "/Umzug-Osterholz-Scharmbeck/Einwohnermeldeamt/",
        "fields": {
            "city": "Osterholz-Scharmbeck",
            "name": "Einwohnermeldeamt Osterholz-Scharmbeck",
            "zipcode": "27711",
            "street": "Rathausstra\u00dfe 1",
            "lat": "53.2268972",
            "lng": "8.7946567"
        }
    },
    {
        "pk": 143,
        "model": "api.registrationoffice",
        "link": "/Umzug-Elbtal/Einwohnermeldeamt/",
        "fields": {
            "city": "Elbtal",
            "name": "Einwohnermeldeamt Elbtal",
            "zipcode": "65627",
            "street": "Rathausstr. 1",
            "lat": "50.50465",
            "lng": "8.06347"
        }
    },
    {
        "pk": 144,
        "model": "api.registrationoffice",
        "link": "/Umzug-Reichshof/Einwohnermeldeamt/",
        "fields": {
            "city": "Reichshof-Denklingen",
            "name": "Einwohnermeldeamt Reichshof",
            "zipcode": "51580",
            "street": "Hauptstra\u00dfe 12",
            "lat": "50.91516",
            "lng": "7.65357"
        }
    },
    {
        "pk": 145,
        "model": "api.registrationoffice",
        "link": "/Umzug-Essen-Ruhr/Einwohnermeldeamt/",
        "fields": {
            "city": "Essen",
            "name": "Einwohnermeldeamt Essen Gildehof, Innenstadt",
            "zipcode": "45127",
            "street": "Hollestr. 3",
            "lat": "51.452977",
            "lng": "7.016391"
        }
    },
    {
        "pk": 146,
        "model": "api.registrationoffice",
        "link": "/Umzug-Essen-Ruhr/Einwohnermeldeamt/",
        "fields": {
            "city": "Essen",
            "name": "Einwohnermeldeamt Essen Borbeck",
            "zipcode": "45355",
            "street": "Rudolf-Heinrich-Str. 1",
            "lat": "51.47409",
            "lng": "6.95279"
        }
    },
    {
        "pk": 147,
        "model": "api.registrationoffice",
        "link": "/Umzug-Essen-Ruhr/Einwohnermeldeamt/",
        "fields": {
            "city": "Essen",
            "name": "Einwohnermeldeamt Essen Frohnhausen",
            "zipcode": "45144",
            "street": "Freytagstr. 29",
            "lat": "51.4524227",
            "lng": "6.981739"
        }
    },
    {
        "pk": 148,
        "model": "api.registrationoffice",
        "link": "/Umzug-Essen-Ruhr/Einwohnermeldeamt/",
        "fields": {
            "city": "Essen",
            "name": "Einwohnermeldeamt Essen Steele",
            "zipcode": "45276",
            "street": "Kaiser-Otto-Platz 1-5",
            "lat": "51.46643",
            "lng": "7.08274"
        }
    },
    {
        "pk": 149,
        "model": "api.registrationoffice",
        "link": "/Umzug-Essen-Ruhr/Einwohnermeldeamt/",
        "fields": {
            "city": "Essen",
            "name": "Einwohnermeldeamt Essen Stoppenberg",
            "zipcode": "45141",
            "street": "Schwanhildenstr. 25",
            "lat": "51.4740079",
            "lng": "7.0385118"
        }
    },
    {
        "pk": 150,
        "model": "api.registrationoffice",
        "link": "/Umzug-Essen-Ruhr/Einwohnermeldeamt/",
        "fields": {
            "city": "Essen",
            "name": "Einwohnermeldeamt Altenessen",
            "zipcode": "45141",
            "street": "Altenessener Stra\u00dfe 196",
            "lat": "51.4676372",
            "lng": "7.0137463"
        }
    },
    {
        "pk": 151,
        "model": "api.registrationoffice",
        "link": "/Umzug-Essen-Ruhr/Einwohnermeldeamt/",
        "fields": {
            "city": "Essen",
            "name": "Einwohnermeldeamt Essen Kettwig",
            "zipcode": "45219",
            "street": "B\u00fcrgermeister-Fiedler-Platz 1",
            "lat": "51.36325",
            "lng": "6.93946"
        }
    },
    {
        "pk": 152,
        "model": "api.registrationoffice",
        "link": "/Umzug-Essen-Ruhr/Einwohnermeldeamt/",
        "fields": {
            "city": "Essen",
            "name": "Einwohnermeldeamt Essen Kupferdreh",
            "zipcode": "45257",
            "street": "Kupferdreher Str. 86",
            "lat": "51.39598",
            "lng": "7.08441"
        }
    },
    {
        "pk": 153,
        "model": "api.registrationoffice",
        "link": "/Umzug-Essen-Ruhr/Einwohnermeldeamt/",
        "fields": {
            "city": "Essen",
            "name": "Einwohnermeldeamt Essen R\u00fcttenscheid",
            "zipcode": "45131",
            "street": "Alfredstr. 148",
            "lat": "51.4294396",
            "lng": "7.000496"
        }
    },
    {
        "pk": 154,
        "model": "api.registrationoffice",
        "link": "/Umzug-Straach/Einwohnermeldeamt/",
        "fields": {
            "city": "Lutherstadt Wittenberg",
            "name": "Einwohnermeldeamt Straach Nudersdorf",
            "zipcode": "06896",
            "street": "Dobiener Stra\u00dfe 1",
            "lat": "51.90487",
            "lng": "12.61334"
        }
    },
    {
        "pk": 155,
        "model": "api.registrationoffice",
        "link": "/Umzug-Straach/Einwohnermeldeamt/",
        "fields": {
            "city": "Lutherstadt Wittenberg",
            "name": "Einwohnermeldeamt Straach Reinsdorf",
            "zipcode": "06896",
            "street": "Schulplatz 5",
            "lat": "51.8918623",
            "lng": "12.6042788"
        }
    },
    {
        "pk": 156,
        "model": "api.registrationoffice",
        "link": "/Umzug-Werdohl/Einwohnermeldeamt/",
        "fields": {
            "city": "Werdohl",
            "name": "Einwohnermeldeamt Werdohl",
            "zipcode": "58791",
            "street": "Goethestr. 51",
            "lat": "51.2533702",
            "lng": "7.7643941"
        }
    },
    {
        "pk": 157,
        "model": "api.registrationoffice",
        "link": "/Umzug-Rodgau/Einwohnermeldeamt/",
        "fields": {
            "city": "Rodgau",
            "name": "Einwohnermeldeamt Rodgau",
            "zipcode": "63110",
            "street": "Hintergasse 15",
            "lat": "50.02553",
            "lng": "8.88443"
        }
    },
    {
        "pk": 158,
        "model": "api.registrationoffice",
        "link": "/Umzug-Hahnstaetten/Einwohnermeldeamt/",
        "fields": {
            "city": "Hahnst\u00e4tten",
            "name": "Einwohnermeldeamt Hahnst\u00e4tten",
            "zipcode": "65623",
            "street": "Ausstra\u00dfe 4",
            "lat": "50.3036386",
            "lng": "8.0690173"
        }
    },
    {
        "pk": 159,
        "model": "api.registrationoffice",
        "link": "/Umzug-Schweinfurt/Einwohnermeldeamt/",
        "fields": {
            "city": "Schweinfurt",
            "name": "Einwohnermeldeamt Schweinfurt",
            "zipcode": "97421",
            "street": "Markt 1",
            "lat": "50.0447114",
            "lng": "10.2349536"
        }
    },
    {
        "pk": 160,
        "model": "api.registrationoffice",
        "link": "/Umzug-Grossfriesen/Einwohnermeldeamt/",
        "fields": {
            "city": "Plauen",
            "name": "Einwohnermeldeamt Gro\u00dffriesen",
            "zipcode": "08523",
            "street": "Rathausstr. 5",
            "lat": "50.4952799",
            "lng": "12.1360312"
        }
    },
    {
        "pk": 161,
        "model": "api.registrationoffice",
        "link": "/Umzug-Buchholz-in-der-Nordheide/Einwohnermeldeamt/",
        "fields": {
            "city": "Buchholz",
            "name": "Einwohnermeldeamt Buchholz",
            "zipcode": "21244",
            "street": "Rathausplatz 1",
            "lat": "53.32962",
            "lng": "9.88102"
        }
    },
    {
        "pk": 162,
        "model": "api.registrationoffice",
        "link": "/Umzug-Eitorf/Einwohnermeldeamt/",
        "fields": {
            "city": "Eitorf",
            "name": "Einwohnermeldeamt Eitorf",
            "zipcode": "53783",
            "street": "Markt 1",
            "lat": "50.77017",
            "lng": "7.44896"
        }
    },
    {
        "pk": 163,
        "model": "api.registrationoffice",
        "link": "/Umzug-Oberasbach/Einwohnermeldeamt/",
        "fields": {
            "city": "Oberasbach",
            "name": "Einwohnermeldeamt Oberasbach",
            "zipcode": "90522",
            "street": "Rathausplatz 1",
            "lat": "49.4313576",
            "lng": "10.9698268"
        }
    },
    {
        "pk": 164,
        "model": "api.registrationoffice",
        "link": "/Umzug-Auerbach-Vogtland/Einwohnermeldeamt/",
        "fields": {
            "city": "Auerbach",
            "name": "Einwohnermeldeamt Auerbach",
            "zipcode": "08209",
            "street": "Schulstr.1",
            "lat": "50.5077888",
            "lng": "12.3986933"
        }
    },
    {
        "pk": 165,
        "model": "api.registrationoffice",
        "link": "/Umzug-Elmshorn/Einwohnermeldeamt/",
        "fields": {
            "city": "Elmshorn",
            "name": "Einwohnermeldeamt Elmshorn",
            "zipcode": "25335",
            "street": "Schulstra\u00dfe 15-17",
            "lat": "53.7541417",
            "lng": "9.6543526"
        }
    },
    {
        "pk": 166,
        "model": "api.registrationoffice",
        "link": "/Umzug-Neunkirchen-Seelscheid/Einwohnermeldeamt/",
        "fields": {
            "city": "Neunkirchen",
            "name": "Einwohnermeldeamt Neunkirchen-Seelscheid Neunkirchen",
            "zipcode": "53819",
            "street": "Hauptstra\u00dfe 78",
            "lat": "50.84409",
            "lng": "7.33689"
        }
    },
    {
        "pk": 167,
        "model": "api.registrationoffice",
        "link": "/Umzug-Neunkirchen-Seelscheid/Einwohnermeldeamt/",
        "fields": {
            "city": "Seelscheid",
            "name": "Einwohnermeldeamt Neunkirchen-Seelscheid Seelscheid",
            "zipcode": "53819",
            "street": "Driescher Stra\u00dfe 2",
            "lat": "50.87289",
            "lng": "7.32629"
        }
    },
    {
        "pk": 168,
        "model": "api.registrationoffice",
        "link": "/Umzug-Dorsten/Einwohnermeldeamt/",
        "fields": {
            "city": "Dorsten",
            "name": "Einwohnermeldeamt Dorsten",
            "zipcode": "46284",
            "street": "Halterner Str. 5",
            "lat": "51.6697362",
            "lng": "6.9693156"
        }
    },
    {
        "pk": 169,
        "model": "api.registrationoffice",
        "link": "/Umzug-Kleve-Niederrhein/Einwohnermeldeamt/",
        "fields": {
            "city": "Kleve",
            "name": "Einwohnermeldeamt Kleve",
            "zipcode": "47533",
            "street": "Minoritenstra\u00dfe 1",
            "lat": "51.7901981",
            "lng": "6.139475"
        }
    },
    {
        "pk": 170,
        "model": "api.registrationoffice",
        "link": "/Umzug-Boehlen-Riesa/Einwohnermeldeamt/",
        "fields": {
            "city": "Riesa",
            "name": "Einwohnermeldeamt B\u00f6hlen",
            "zipcode": "01589",
            "street": "Rathausplatz 1",
            "lat": "51.3029",
            "lng": "13.31351"
        }
    },
    {
        "pk": 171,
        "model": "api.registrationoffice",
        "link": "/Umzug-Wesseling/Einwohnermeldeamt/",
        "fields": {
            "city": "Wesseling",
            "name": "Einwohnermeldeamt Wesseling",
            "zipcode": "50389",
            "street": "Alfons-M\u00fcller-Platz",
            "lat": "50.81919",
            "lng": "6.98033"
        }
    },
    {
        "pk": 172,
        "model": "api.registrationoffice",
        "link": "/Umzug-Garmisch-Partenkirchen/Einwohnermeldeamt/",
        "fields": {
            "city": "Garmisch-Partenkirchen",
            "name": "Einwohnermeldeamt Garmisch-Partenkirchen",
            "zipcode": "82467",
            "street": "Rathausplatz 1",
            "lat": "47.4937356",
            "lng": "11.1042782"
        }
    },
    {
        "pk": 173,
        "model": "api.registrationoffice",
        "link": "/Umzug-Ostbevern/Einwohnermeldeamt/",
        "fields": {
            "city": "Ostbevern",
            "name": "Einwohnermeldeamt Ostbevern",
            "zipcode": "48346",
            "street": "Hauptstra\u00dfe 24",
            "lat": "52.035799",
            "lng": "7.8392071"
        }
    },
    {
        "pk": 174,
        "model": "api.registrationoffice",
        "link": "/Umzug-Rheinfelden-Baden/Einwohnermeldeamt/",
        "fields": {
            "city": "Rheinfelden",
            "name": "Einwohnermeldeamt Rheinfelden",
            "zipcode": "79618",
            "street": "Kirchplatz 2",
            "lat": "47.56048",
            "lng": "7.78602"
        }
    },
    {
        "pk": 175,
        "model": "api.registrationoffice",
        "link": "/Umzug-Huenfelden/Einwohnermeldeamt/",
        "fields": {
            "city": "H\u00fcnfelden",
            "name": "Einwohnermeldeamt H\u00fcnfelden",
            "zipcode": "65597",
            "street": "Le Thillay-Platz",
            "lat": "50.330666",
            "lng": "8.144588"
        }
    },
    {
        "pk": 176,
        "model": "api.registrationoffice",
        "link": "/Umzug-Benningen-am-Neckar/Einwohnermeldeamt/",
        "fields": {
            "city": "Benningen",
            "name": "Einwohnermeldeamt Benningen",
            "zipcode": "71726",
            "street": "Studionstra\u00dfe 10",
            "lat": "48.9442674",
            "lng": "9.2442313"
        }
    },
    {
        "pk": 177,
        "model": "api.registrationoffice",
        "link": "/Umzug-Salzkotten/Einwohnermeldeamt/",
        "fields": {
            "city": "Salzkotten",
            "name": "Einwohnermeldeamt Salzkotten",
            "zipcode": "33154",
            "street": "Marktstra\u00dfe 8",
            "lat": "51.67085",
            "lng": "8.60424"
        }
    },
    {
        "pk": 178,
        "model": "api.registrationoffice",
        "link": "/Umzug-Radolfzell-am-Bodensee/Einwohnermeldeamt/",
        "fields": {
            "city": "Radolfzell",
            "name": "Einwohnermeldeamt Radolfzell",
            "zipcode": "78315",
            "street": "Marktplatz 2",
            "lat": "47.7363124",
            "lng": "8.9687037"
        }
    },
    {
        "pk": 179,
        "model": "api.registrationoffice",
        "link": "/Umzug-Schieder-Schwalenberg/Einwohnermeldeamt/",
        "fields": {
            "city": "Schieder-Schwalenberg",
            "name": "Einwohnermeldeamt Schieder-Schwalenberg",
            "zipcode": "32816",
            "street": "Im Kurpark 2",
            "lat": "51.91531",
            "lng": "9.15007"
        }
    },
    {
        "pk": 180,
        "model": "api.registrationoffice",
        "link": "/Umzug-Eisenach-Thueringen/Einwohnermeldeamt/",
        "fields": {
            "city": "Eisenach",
            "name": "Einwohnermeldeamt Eisenach",
            "zipcode": "99817",
            "street": "Markt 22",
            "lat": "50.97556",
            "lng": "10.31932"
        }
    },
    {
        "pk": 181,
        "model": "api.registrationoffice",
        "link": "/Umzug-Bergisch-Gladbach/Einwohnermeldeamt/",
        "fields": {
            "city": "Bergisch Gladbach",
            "name": "Einwohnermeldeamt Bergisch Gladbach Stadtmitte",
            "zipcode": "51465",
            "street": "Konrad-Adenauer-Platz 9",
            "lat": "50.9903584",
            "lng": "7.1295981"
        }
    },
    {
        "pk": 182,
        "model": "api.registrationoffice",
        "link": "/Umzug-Bergisch-Gladbach/Einwohnermeldeamt/",
        "fields": {
            "city": "Bergisch Gladbach",
            "name": "Einwohnermeldeamt Bergisch Gladbach Bensberg",
            "zipcode": "51429",
            "street": "Schlo\u00dfstra\u00dfe 82",
            "lat": "50.9639068",
            "lng": "7.1631075"
        }
    },
    {
        "pk": 183,
        "model": "api.registrationoffice",
        "link": "/Umzug-Bergisch-Gladbach/Einwohnermeldeamt/",
        "fields": {
            "city": "Bergisch Gladbach",
            "name": "Einwohnermeldeamt Bergisch Gladbach Hand",
            "zipcode": "51469",
            "street": "Dellbr\u00fccker Stra\u00dfe 48",
            "lat": "50.9897042",
            "lng": "7.0891804"
        }
    },
    {
        "pk": 184,
        "model": "api.registrationoffice",
        "link": "/Umzug-Bergisch-Gladbach/Einwohnermeldeamt/",
        "fields": {
            "city": "Bergisch Gladbach",
            "name": "Einwohnermeldeamt Bergisch Gladbach Herkenrath",
            "zipcode": "51429",
            "street": "Ball 12",
            "lat": "50.98719",
            "lng": "7.19108"
        }
    },
    {
        "pk": 185,
        "model": "api.registrationoffice",
        "link": "/Umzug-Bergisch-Gladbach/Einwohnermeldeamt/",
        "fields": {
            "city": "Bergisch Gladbach",
            "name": "Einwohnermeldeamt Bergisch Gladbach Paffrath",
            "zipcode": "51469",
            "street": "Paffrather Stra\u00dfe 316",
            "lat": "50.99915",
            "lng": "7.09986"
        }
    },
    {
        "pk": 186,
        "model": "api.registrationoffice",
        "link": "/Umzug-Bergisch-Gladbach/Einwohnermeldeamt/",
        "fields": {
            "city": "Bergisch Gladbach",
            "name": "Einwohnermeldeamt Bergisch Gladbach Refrath",
            "zipcode": "51427",
            "street": "Siebenmorgen 23",
            "lat": "50.95669",
            "lng": "7.11685"
        }
    },
    {
        "pk": 187,
        "model": "api.registrationoffice",
        "link": "/Umzug-Bergisch-Gladbach/Einwohnermeldeamt/",
        "fields": {
            "city": "Bergisch Gladbach",
            "name": "Einwohnermeldeamt Bergisch Gladbach Schildgen",
            "zipcode": "51467",
            "street": "Altenberger-Dom-Stra\u00dfe 128",
            "lat": "51.014936",
            "lng": "7.0802448"
        }
    },
    {
        "pk": 188,
        "model": "api.registrationoffice",
        "link": "/Umzug-Fellbach/Einwohnermeldeamt/",
        "fields": {
            "city": "Fellbach",
            "name": "Einwohnermeldeamt Fellbach",
            "zipcode": "70734",
            "street": "Marktplatz 1",
            "lat": "48.80852",
            "lng": "9.27575"
        }
    },
    {
        "pk": 189,
        "model": "api.registrationoffice",
        "link": "/Umzug-Coburg/Einwohnermeldeamt/",
        "fields": {
            "city": "Coburg",
            "name": "Einwohnermeldeamt Coburg",
            "zipcode": "96450",
            "street": "Einwohneramt - Melde- u. Passbeh\u00f6rde",
            "lat": "50.255698",
            "lng": "10.9550818"
        }
    },
    {
        "pk": 190,
        "model": "api.registrationoffice",
        "link": "/Umzug-Prenzlau/Einwohnermeldeamt/",
        "fields": {
            "city": "Prenzlau",
            "name": "Einwohnermeldeamt Prenzlau",
            "zipcode": "17291",
            "street": "Am Steintor 4",
            "lat": "53.30966",
            "lng": "13.86266"
        }
    },
    {
        "pk": 191,
        "model": "api.registrationoffice",
        "link": "/Umzug-Hinterbirkenhof/Einwohnermeldeamt/",
        "fields": {
            "city": "Marbach",
            "name": "Einwohnermeldeamt Hinterbirkenhof",
            "zipcode": "71672",
            "street": "Marktstra\u00dfe 23",
            "lat": "48.9403333",
            "lng": "9.2569265"
        }
    },
    {
        "pk": 192,
        "model": "api.registrationoffice",
        "link": "/Umzug-Hiddenhausen/Einwohnermeldeamt/",
        "fields": {
            "city": "Hiddenhausen",
            "name": "Einwohnermeldeamt Hiddenhausen",
            "zipcode": "32120",
            "street": "Rathausstra\u00dfe 1",
            "lat": "52.15355",
            "lng": "8.63847"
        }
    },
    {
        "pk": 193,
        "model": "api.registrationoffice",
        "link": "/Umzug-Pfaffenhofen-Ilm/Einwohnermeldeamt/",
        "fields": {
            "city": "Pfaffenhofen",
            "name": "Einwohnermeldeamt Pfaffenhofen",
            "zipcode": "85276",
            "street": "Hauptplatz  1",
            "lat": "48.5296516",
            "lng": "11.5087866"
        }
    },
    {
        "pk": 194,
        "model": "api.registrationoffice",
        "link": "/Umzug-Halver/Einwohnermeldeamt/",
        "fields": {
            "city": "Halver",
            "name": "Einwohnermeldeamt Halver",
            "zipcode": "58553",
            "street": "Thomasstra\u00dfe 18",
            "lat": "51.1885135",
            "lng": "7.5043139"
        }
    },
    {
        "pk": 195,
        "model": "api.registrationoffice",
        "link": "/Umzug-Schlangen/Einwohnermeldeamt/",
        "fields": {
            "city": "Schlangen",
            "name": "Einwohnermeldeamt Schlangen",
            "zipcode": "33189",
            "street": "Kirchplatz 6",
            "lat": "51.80857",
            "lng": "8.84511"
        }
    },
    {
        "pk": 196,
        "model": "api.registrationoffice",
        "link": "/Umzug-Alach/Einwohnermeldeamt/",
        "fields": {
            "city": "Erfurt",
            "name": "Einwohnermeldeamt Alach",
            "zipcode": "99084",
            "street": "B\u00fcrgermeister-Wagner-Stra\u00dfe 1",
            "lat": "50.9745996",
            "lng": "11.0377352"
        }
    },
    {
        "pk": 197,
        "model": "api.registrationoffice",
        "link": "/Umzug-Gauting/Einwohnermeldeamt/",
        "fields": {
            "city": "Gauting",
            "name": "Einwohnermeldeamt Gauting",
            "zipcode": "82131",
            "street": "Bahnhofstr. 7",
            "lat": "48.06677",
            "lng": "11.37879"
        }
    },
    {
        "pk": 198,
        "model": "api.registrationoffice",
        "link": "/Umzug-Burgdorf-Hannover/Einwohnermeldeamt/",
        "fields": {
            "city": "Burgdorf",
            "name": "Einwohnermeldeamt Burgdorf",
            "zipcode": "31303",
            "street": "Spittaplatz 4",
            "lat": "52.44531",
            "lng": "10.00639"
        }
    },
    {
        "pk": 199,
        "model": "api.registrationoffice",
        "link": "/Umzug-Olching/Einwohnermeldeamt/",
        "fields": {
            "city": "Olching",
            "name": "Einwohnermeldeamt Olching",
            "zipcode": "82140",
            "street": "Rebhuhnstra\u00dfe 18",
            "lat": "48.20345",
            "lng": "11.33125"
        }
    },
    {
        "pk": 200,
        "model": "api.registrationoffice",
        "link": "/Umzug-Sarstedt/Einwohnermeldeamt/",
        "fields": {
            "city": "Sarstedt",
            "name": "Einwohnermeldeamt Sarstedt",
            "zipcode": "31157",
            "street": "Steinstr. 22",
            "lat": "52.23402",
            "lng": "9.85331"
        }
    },
    {
        "pk": 201,
        "model": "api.registrationoffice",
        "link": "/Umzug-Worms/Einwohnermeldeamt/",
        "fields": {
            "city": "Worms",
            "name": "Einwohnermeldeamt Worms",
            "zipcode": "67547",
            "street": "Adenauerring 1",
            "lat": "49.63336",
            "lng": "8.36148"
        }
    },
    {
        "pk": 202,
        "model": "api.registrationoffice",
        "link": "/Umzug-Steimel/Einwohnermeldeamt/",
        "fields": {
            "city": "Steimel",
            "name": "Einwohnermeldeamt Steimel",
            "zipcode": "57614",
            "street": "Lindenallee 10",
            "lat": "50.61676",
            "lng": "7.62612"
        }
    },
    {
        "pk": 203,
        "model": "api.registrationoffice",
        "link": "/Umzug-Crailsheim/Einwohnermeldeamt/",
        "fields": {
            "city": "Crailsheim",
            "name": "Einwohnermeldeamt Crailsheim",
            "zipcode": "74564",
            "street": "B\u00fcrgerb\u00fcro",
            "lat": "49.1337354",
            "lng": "10.0633573"
        }
    },
    {
        "pk": 204,
        "model": "api.registrationoffice",
        "link": "/Umzug-Saarbruecken/Einwohnermeldeamt/",
        "fields": {
            "city": "Saarbr\u00fccken",
            "name": "Einwohnermeldeamt Saarbr\u00fccken City",
            "zipcode": "66111",
            "street": "Gerberstra\u00dfe 4",
            "lat": "49.23413",
            "lng": "6.99576"
        }
    },
    {
        "pk": 205,
        "model": "api.registrationoffice",
        "link": "/Umzug-Saarbruecken/Einwohnermeldeamt/",
        "fields": {
            "city": "Saarbr\u00fccken",
            "name": "Einwohnermeldeamt Saarbr\u00fccken Dudweiler",
            "zipcode": "66125",
            "street": "Am Markt 1",
            "lat": "49.2753471",
            "lng": "7.0366879"
        }
    },
    {
        "pk": 206,
        "model": "api.registrationoffice",
        "link": "/Umzug-Saarbruecken/Einwohnermeldeamt/",
        "fields": {
            "city": "Saarbr\u00fccken",
            "name": "Einwohnermeldeamt Saarbr\u00fccken Halberg",
            "zipcode": "66130",
            "street": "Kurt-Schumacher-Stra\u00dfe",
            "lat": "49.20653",
            "lng": "7.04402"
        }
    },
    {
        "pk": 207,
        "model": "api.registrationoffice",
        "link": "/Umzug-Saarbruecken/Einwohnermeldeamt/",
        "fields": {
            "city": "Saarbr\u00fccken",
            "name": "Einwohnermeldeamt Saarbr\u00fccken West",
            "zipcode": "66115",
            "street": "Burbacher Markt 20",
            "lat": "49.2417372",
            "lng": "6.9465443"
        }
    },
    {
        "pk": 208,
        "model": "api.registrationoffice",
        "link": "/Umzug-Backnang/Einwohnermeldeamt/",
        "fields": {
            "city": "Backnang",
            "name": "Einwohnermeldeamt Backnang",
            "zipcode": "71522",
            "street": "Im Biegel 13",
            "lat": "48.9485988",
            "lng": "9.4307109"
        }
    },
    {
        "pk": 209,
        "model": "api.registrationoffice",
        "link": "/Umzug-Huellhorst/Einwohnermeldeamt/",
        "fields": {
            "city": "H\u00fcllhorst",
            "name": "Einwohnermeldeamt H\u00fcllhorst",
            "zipcode": "32609",
            "street": "L\u00f6hner Stra\u00dfe 1",
            "lat": "52.2717564",
            "lng": "8.672679"
        }
    },
    {
        "pk": 210,
        "model": "api.registrationoffice",
        "link": "/Umzug-Guestrow/Einwohnermeldeamt/",
        "fields": {
            "city": "G\u00fcstrow",
            "name": "Einwohnermeldeamt G\u00fcstrow",
            "zipcode": "18273",
            "street": "Markt 1",
            "lat": "53.79335",
            "lng": "12.17606"
        }
    },
    {
        "pk": 211,
        "model": "api.registrationoffice",
        "link": "/Umzug-Rinteln/Einwohnermeldeamt/",
        "fields": {
            "city": "Rinteln",
            "name": "Einwohnermeldeamt Rinteln",
            "zipcode": "31737",
            "street": "Klosterstra\u00dfe 20",
            "lat": "52.18434",
            "lng": "9.07799"
        }
    },
    {
        "pk": 212,
        "model": "api.registrationoffice",
        "link": "/Umzug-Wipperfuerth/Einwohnermeldeamt/",
        "fields": {
            "city": "Wipperf\u00fcrth",
            "name": "Einwohnermeldeamt Wipperf\u00fcrth",
            "zipcode": "51688",
            "street": "Marktplatz 1",
            "lat": "51.1168371",
            "lng": "7.3973042"
        }
    },
    {
        "pk": 213,
        "model": "api.registrationoffice",
        "link": "/Umzug-Recklinghausen/Einwohnermeldeamt/",
        "fields": {
            "city": "Recklinghausen",
            "name": "Einwohnermeldeamt Recklinghausen",
            "zipcode": "45657",
            "street": "Rathausplatz 4",
            "lat": "51.61137",
            "lng": "7.19921"
        }
    },
    {
        "pk": 214,
        "model": "api.registrationoffice",
        "link": "/Umzug-Neu-Ulm/Einwohnermeldeamt/",
        "fields": {
            "city": "Neu-Ulm",
            "name": "Einwohnermeldeamt Neu-Ulm",
            "zipcode": "89231",
            "street": "Petrusplatz 15",
            "lat": "48.3940659",
            "lng": "10.0003107"
        }
    },
    {
        "pk": 215,
        "model": "api.registrationoffice",
        "link": "/Umzug-Rheurdt/Einwohnermeldeamt/",
        "fields": {
            "city": "Rheurdt",
            "name": "Einwohnermeldeamt Rheurdt",
            "zipcode": "47509",
            "street": "Rathausstrasse 35",
            "lat": "51.4676757",
            "lng": "6.4694257"
        }
    },
    {
        "pk": 216,
        "model": "api.registrationoffice",
        "link": "/Umzug-Burgstetten/Einwohnermeldeamt/",
        "fields": {
            "city": "Burgstetten",
            "name": "Einwohnermeldeamt Burgstetten",
            "zipcode": "71576",
            "street": "Rathausstr. 18",
            "lat": "48.92874",
            "lng": "9.37308"
        }
    },
    {
        "pk": 217,
        "model": "api.registrationoffice",
        "link": "/Umzug-Borken-Westfalen/Einwohnermeldeamt/",
        "fields": {
            "city": "Borken",
            "name": "Einwohnermeldeamt Borken",
            "zipcode": "46325",
            "street": "Im Piepershagen 17",
            "lat": "51.84675",
            "lng": "6.85707"
        }
    },
    {
        "pk": 218,
        "model": "api.registrationoffice",
        "link": "/Umzug-Hamburg/Einwohnermeldeamt/",
        "fields": {
            "city": "Hamburg",
            "name": "Einwohnermeldeamt Hamburg Mitte",
            "zipcode": "20095",
            "street": "Steinstra\u00dfe 1",
            "lat": "53.54984",
            "lng": "10.00536"
        }
    },
    {
        "pk": 219,
        "model": "api.registrationoffice",
        "link": "/Umzug-Hamburg/Einwohnermeldeamt/",
        "fields": {
            "city": "Hamburg",
            "name": "Einwohnermeldeamt Hamburg Alstertal",
            "zipcode": "22391",
            "street": "Wentzelplatz 7",
            "lat": "53.65156",
            "lng": "10.09161"
        }
    },
    {
        "pk": 220,
        "model": "api.registrationoffice",
        "link": "/Umzug-Hamburg/Einwohnermeldeamt/",
        "fields": {
            "city": "Hamburg",
            "name": "Einwohnermeldeamt Hamburg Altona",
            "zipcode": "22765",
            "street": "Ottenser Marktplatz 10",
            "lat": "53.5476722",
            "lng": "9.9338166"
        }
    },
    {
        "pk": 221,
        "model": "api.registrationoffice",
        "link": "/Umzug-Hamburg/Einwohnermeldeamt/",
        "fields": {
            "city": "Hamburg",
            "name": "Einwohnermeldeamt Hamburg Barmbek-Uhlenhorst",
            "zipcode": "22305",
            "street": "Poppenhusenstra\u00dfe 6",
            "lat": "53.58542",
            "lng": "10.04312"
        }
    },
    {
        "pk": 222,
        "model": "api.registrationoffice",
        "link": "/Umzug-Hamburg/Einwohnermeldeamt/",
        "fields": {
            "city": "Hamburg",
            "name": "Einwohnermeldeamt Hamburg Bergedorf",
            "zipcode": "21029",
            "street": "Weidenbaumsweg 21",
            "lat": "53.4897118",
            "lng": "10.208739"
        }
    },
    {
        "pk": 223,
        "model": "api.registrationoffice",
        "link": "/Umzug-Hamburg/Einwohnermeldeamt/",
        "fields": {
            "city": "Hamburg",
            "name": "Einwohnermeldeamt Hamburg Billstedt",
            "zipcode": "22111",
            "street": "\u00d6jendorfer Weg 9",
            "lat": "53.54037",
            "lng": "10.10656"
        }
    },
    {
        "pk": 224,
        "model": "api.registrationoffice",
        "link": "/Umzug-Hamburg/Einwohnermeldeamt/",
        "fields": {
            "city": "Hamburg",
            "name": "Einwohnermeldeamt Hamburg Blankenese",
            "zipcode": "22587",
            "street": "S\u00fclldorfer Kirchenweg 2a",
            "lat": "53.5635054",
            "lng": "9.8125388"
        }
    },
    {
        "pk": 225,
        "model": "api.registrationoffice",
        "link": "/Umzug-Hamburg/Einwohnermeldeamt/",
        "fields": {
            "city": "Hamburg",
            "name": "Einwohnermeldeamt Hamburg Bramfeld",
            "zipcode": "22179",
            "street": "Herthastrasse 20",
            "lat": "53.6119",
            "lng": "10.0773"
        }
    },
    {
        "pk": 226,
        "model": "api.registrationoffice",
        "link": "/Umzug-Hamburg/Einwohnermeldeamt/",
        "fields": {
            "city": "Hamburg",
            "name": "Einwohnermeldeamt Hamburg Eimsb\u00fcttel",
            "zipcode": "20139",
            "street": "Grindelberg 62-66",
            "lat": "53.5746556",
            "lng": "9.9778359"
        }
    },
    {
        "pk": 227,
        "model": "api.registrationoffice",
        "link": "/Umzug-Hamburg/Einwohnermeldeamt/",
        "fields": {
            "city": "Hamburg",
            "name": "Einwohnermeldeamt Hamburg Finkenwerder",
            "zipcode": "21129",
            "street": "Steendiek 33",
            "lat": "53.5323847",
            "lng": "9.8804492"
        }
    },
    {
        "pk": 228,
        "model": "api.registrationoffice",
        "link": "/Umzug-Hamburg/Einwohnermeldeamt/",
        "fields": {
            "city": "Hamburg",
            "name": "Einwohnermeldeamt Hamburg Fuhlsb\u00fcttel",
            "zipcode": "22335",
            "street": "Hummelsb\u00fctteler Landstra\u00dfe 46",
            "lat": "53.63071",
            "lng": "10.02725"
        }
    },
    {
        "pk": 229,
        "model": "api.registrationoffice",
        "link": "/Umzug-Hamburg/Einwohnermeldeamt/",
        "fields": {
            "city": "Hamburg",
            "name": "Einwohnermeldeamt Hamburg Harburg",
            "zipcode": "21073",
            "street": "Harburger Rathauspassage 2",
            "lat": "53.45849",
            "lng": "9.97959"
        }
    },
    {
        "pk": 230,
        "model": "api.registrationoffice",
        "link": "/Umzug-Hamburg/Einwohnermeldeamt/",
        "fields": {
            "city": "Hamburg",
            "name": "Einwohnermeldeamt Hamburg Lokstedt",
            "zipcode": "22453",
            "street": "Garstedter Weg 11",
            "lat": "53.6203371",
            "lng": "9.9540444"
        }
    },
    {
        "pk": 231,
        "model": "api.registrationoffice",
        "link": "/Umzug-Hamburg/Einwohnermeldeamt/",
        "fields": {
            "city": "Hamburg",
            "name": "Einwohnermeldeamt Hamburg Nord",
            "zipcode": "20249",
            "street": "Lenhartzstra\u00dfe 28",
            "lat": "53.5896788",
            "lng": "9.9834224"
        }
    },
    {
        "pk": 232,
        "model": "api.registrationoffice",
        "link": "/Umzug-Hamburg/Einwohnermeldeamt/",
        "fields": {
            "city": "Hamburg",
            "name": "Einwohnermeldeamt Hamburg Rahlstedt",
            "zipcode": "22143",
            "street": "Rahlstedter Strasse 151-157",
            "lat": "53.6005458",
            "lng": "10.1564729"
        }
    },
    {
        "pk": 233,
        "model": "api.registrationoffice",
        "link": "/Umzug-Hamburg/Einwohnermeldeamt/",
        "fields": {
            "city": "Hamburg",
            "name": "Einwohnermeldeamt Hamburg St. Pauli",
            "zipcode": "20359",
            "street": "Simon-von-Utrecht-Str. 4a",
            "lat": "53.55157",
            "lng": "9.96116"
        }
    },
    {
        "pk": 234,
        "model": "api.registrationoffice",
        "link": "/Umzug-Hamburg/Einwohnermeldeamt/",
        "fields": {
            "city": "Hamburg",
            "name": "Einwohnermeldeamt Hamburg S\u00fcderelbe",
            "zipcode": "21149",
            "street": "Neugrabener Markt 5",
            "lat": "53.4696697",
            "lng": "9.852863"
        }
    },
    {
        "pk": 235,
        "model": "api.registrationoffice",
        "link": "/Umzug-Hamburg/Einwohnermeldeamt/",
        "fields": {
            "city": "Hamburg",
            "name": "Einwohnermeldeamt Hamburg Waldd\u00f6rfer",
            "zipcode": "22359",
            "street": "Farmsener Landstr. 202",
            "lat": "53.6500279",
            "lng": "10.1619586"
        }
    },
    {
        "pk": 236,
        "model": "api.registrationoffice",
        "link": "/Umzug-Hamburg/Einwohnermeldeamt/",
        "fields": {
            "city": "Hamburg",
            "name": "Einwohnermeldeamt Hamburg Wandsbek",
            "zipcode": "22041",
            "street": "Schlo\u00dfstra\u00dfe 60",
            "lat": "53.57216",
            "lng": "10.0708"
        }
    },
    {
        "pk": 237,
        "model": "api.registrationoffice",
        "link": "/Umzug-Hamburg/Einwohnermeldeamt/",
        "fields": {
            "city": "Hamburg",
            "name": "Einwohnermeldeamt Hamburg Wilhelmsburg",
            "zipcode": "21107",
            "street": "Mengestrasse 19",
            "lat": "53.4990635",
            "lng": "9.9968895"
        }
    },
    {
        "pk": 238,
        "model": "api.registrationoffice",
        "link": "/Umzug-Bonn/Einwohnermeldeamt/",
        "fields": {
            "city": "Bonn",
            "name": "Einwohnermeldeamt Bonn Stadthaus",
            "zipcode": "53111",
            "street": "Berliner Platz 2",
            "lat": "50.73689",
            "lng": "7.09477"
        }
    },
    {
        "pk": 239,
        "model": "api.registrationoffice",
        "link": "/Umzug-Bonn/Einwohnermeldeamt/",
        "fields": {
            "city": "Bonn",
            "name": "Einwohnermeldeamt Bonn Bad Godesberg",
            "zipcode": "53177",
            "street": "Kurf\u00fcrstenallee 2-3",
            "lat": "50.68043",
            "lng": "7.15337"
        }
    },
    {
        "pk": 240,
        "model": "api.registrationoffice",
        "link": "/Umzug-Bonn/Einwohnermeldeamt/",
        "fields": {
            "city": "Bonn",
            "name": "Einwohnermeldeamt Bonn Hardtberg",
            "zipcode": "53123",
            "street": "Villemombler Str. 1",
            "lat": "50.7162757",
            "lng": "7.0514794"
        }
    },
    {
        "pk": 241,
        "model": "api.registrationoffice",
        "link": "/Umzug-Bonn/Einwohnermeldeamt/",
        "fields": {
            "city": "Bonn",
            "name": "Einwohnermeldeamt Bonn Beuel",
            "zipcode": "53225",
            "street": "Friedrich-Breuer-Str. 65",
            "lat": "50.73968",
            "lng": "7.11971"
        }
    },
    {
        "pk": 242,
        "model": "api.registrationoffice",
        "link": "/Umzug-Wettringen-Steinfurt/Einwohnermeldeamt/",
        "fields": {
            "city": "Wettringen",
            "name": "Einwohnermeldeamt Wettringen",
            "zipcode": "48493",
            "street": "Kirchstra\u00dfe 19",
            "lat": "52.2096321",
            "lng": "7.321619"
        }
    },
    {
        "pk": 243,
        "model": "api.registrationoffice",
        "link": "/Umzug-Legden/Einwohnermeldeamt/",
        "fields": {
            "city": "Legden",
            "name": "Einwohnermeldeamt Legden",
            "zipcode": "48739",
            "street": "Hauptstra\u00dfe 32",
            "lat": "52.03086",
            "lng": "7.102542"
        }
    },
    {
        "pk": 244,
        "model": "api.registrationoffice",
        "link": "/Umzug-Dresden/Einwohnermeldeamt/",
        "fields": {
            "city": "Dresden",
            "name": "Einwohnermeldeamt Dresden Altstadt",
            "zipcode": "01067",
            "street": "Theaterstr. 11",
            "lat": "51.0526357",
            "lng": "13.7303063"
        }
    },
    {
        "pk": 245,
        "model": "api.registrationoffice",
        "link": "/Umzug-Dresden/Einwohnermeldeamt/",
        "fields": {
            "city": "Dresden",
            "name": "Einwohnermeldeamt Dresden Pieschen",
            "zipcode": "01127",
            "street": "B\u00fcrgerstr. 63",
            "lat": "51.0773427",
            "lng": "13.7215088"
        }
    },
    {
        "pk": 246,
        "model": "api.registrationoffice",
        "link": "/Umzug-Dresden/Einwohnermeldeamt/",
        "fields": {
            "city": "Dresden",
            "name": "Einwohnermeldeamt Dresden Blasewitz",
            "zipcode": "01309",
            "street": "Naumannstr. 5",
            "lat": "51.0525363",
            "lng": "13.8056456"
        }
    },
    {
        "pk": 247,
        "model": "api.registrationoffice",
        "link": "/Umzug-Dresden/Einwohnermeldeamt/",
        "fields": {
            "city": "Dresden",
            "name": "Einwohnermeldeamt Dresden Cotta",
            "zipcode": "01157",
            "street": "L\u00fcbecker Str. 121",
            "lat": "51.0561829",
            "lng": "13.6881854"
        }
    },
    {
        "pk": 248,
        "model": "api.registrationoffice",
        "link": "/Umzug-Dresden/Einwohnermeldeamt/",
        "fields": {
            "city": "Dresden",
            "name": "Einwohnermeldeamt Dresden Klotzsche",
            "zipcode": "01109",
            "street": "Kieler Str. 52",
            "lat": "51.11203",
            "lng": "13.77404"
        }
    },
    {
        "pk": 249,
        "model": "api.registrationoffice",
        "link": "/Umzug-Dresden/Einwohnermeldeamt/",
        "fields": {
            "city": "Dresden",
            "name": "Einwohnermeldeamt Dresden Leuben",
            "zipcode": "01257",
            "street": "Hertzstr. 23",
            "lat": "51.01032",
            "lng": "13.82534"
        }
    },
    {
        "pk": 250,
        "model": "api.registrationoffice",
        "link": "/Umzug-Dresden/Einwohnermeldeamt/",
        "fields": {
            "city": "Dresden",
            "name": "Einwohnermeldeamt Dresden Neustadt",
            "zipcode": "01099",
            "street": "Hoyerswerdaer Str. 3",
            "lat": "51.0596912",
            "lng": "13.7527919"
        }
    },
    {
        "pk": 251,
        "model": "api.registrationoffice",
        "link": "/Umzug-Dresden/Einwohnermeldeamt/",
        "fields": {
            "city": "Dresden",
            "name": "Einwohnermeldeamt Dresden Plauen",
            "zipcode": "01187",
            "street": "N\u00f6thnitzer Str. 2",
            "lat": "51.029115",
            "lng": "13.7073431"
        }
    },
    {
        "pk": 252,
        "model": "api.registrationoffice",
        "link": "/Umzug-Dresden/Einwohnermeldeamt/",
        "fields": {
            "city": "Dresden",
            "name": "Einwohnermeldeamt Dresden Prohlis",
            "zipcode": "01239",
            "street": "Prohliser Allee 10",
            "lat": "51.00534",
            "lng": "13.79787"
        }
    },
    {
        "pk": 253,
        "model": "api.registrationoffice",
        "link": "/Umzug-Dresden/Einwohnermeldeamt/",
        "fields": {
            "city": "Dresden",
            "name": "Einwohnermeldeamt Dresden Sch\u00f6nfeld-Wei\u00dfig",
            "zipcode": "01328",
            "street": "Bautzner Landstra\u00dfe 291",
            "lat": "51.0636069",
            "lng": "13.9435222"
        }
    },
    {
        "pk": 254,
        "model": "api.registrationoffice",
        "link": "/Umzug-Werther-Westfalen/Einwohnermeldeamt/",
        "fields": {
            "city": "Werther",
            "name": "Einwohnermeldeamt Werther",
            "zipcode": "33824",
            "street": "M\u00fchlenstra\u00dfe 2",
            "lat": "52.074247",
            "lng": "8.4168199"
        }
    },