[
    {
        "pk": 506, 
        "model": "api.registrationoffice", 
        "fields": {
            "city": "Aachen", 
            "name": "Einwohnermeldeamt Aachen Brand", 
            "zipcode": "52078", 
            "state": "Nordrhein-Westfalen", 
            "street": "Paul-K\u00fcpper-Platz 1", 
            "lat": "50.7474462", 
            "lng": "6.1637174"
        }
    }, 
    {
        "pk": 507, 
        "model": "api.registrationoffice", 
        "fields": {
            "city": "Aachen", 
            "name": "Einwohnermeldeamt Aachen Eilendorf", 
            "zipcode": "52080", 
            "state": "Nordrhein-Westfalen", 
            "street": "Heinrich-Thomas-Platz 1", 
            "lat": "50.78128", 
            "lng": "6.15358"
        }
    }, 
    {
        "pk": 508, 
        "model": "api.registrationoffice", 
        "fields": {
            "city": "Aachen", 
            "name": "Einwohnermeldeamt Aachen Haaren", 
            "zipcode": "52080", 
            "state": "Nordrhein-Westfalen", 
            "street": "Alt-Haarener-Stra\u00dfe 139-141", 
            "lat": "50.7964339", 
            "lng": "6.1258985"
        }
    }, 
    {
        "pk": 509, 
        "model": "api.registrationoffice", 
        "fields": {
            "city": "Aachen", 
            "name": "Einwohnermeldeamt Aachen Laurensberg", 
            "zipcode": "52072", 
            "state": "Nordrhein-Westfalen", 
            "street": "Rathausstra\u00dfe 12", 
            "lat": "50.79805", 
            "lng": "6.06063"
        }
    }, 
    {
        "pk": 510, 
        "model": "api.registrationoffice", 
        "fields": {
            "city": "Aachen", 
            "name": "Einwohnermeldeamt Aachen Richterich", 
            "zipcode": "52072", 
            "state": "Nordrhein-Westfalen", 
            "street": "Roermonder Stra\u00dfe 559", 
            "lat": "50.8113576", 
            "lng": "6.0602452"
        }
    }, 
    {
        "pk": 511, 
        "model": "api.registrationoffice", 
        "fields": {
            "city": "Aachen", 
            "name": "Einwohnermeldeamt Aachen Servicecenter Call", 
            "zipcode": "52064", 
            "state": "Nordrhein-Westfalen", 
            "street": "Lagerhausstra\u00dfe 20", 
            "lat": "50.76812", 
            "lng": "6.08859"
        }
    }, 
    {
        "pk": 512, 
        "model": "api.registrationoffice", 
        "fields": {
            "city": "Aachen", 
            "name": "Einwohnermeldeamt Aachen Bahnhof", 
            "zipcode": "52064", 
            "state": "Nordrhein-Westfalen", 
            "street": "Hackl\u00e4nderstra\u00dfe 1", 
            "lat": "50.76838", 
            "lng": "6.09308"
        }
    }, 
    {
        "pk": 513, 
        "model": "api.registrationoffice", 
        "fields": {
            "city": "Aachen", 
            "name": "Einwohnermeldeamt Aachen Kornelim\u00fcnster / Walheim", 
            "zipcode": "52076", 
            "state": "Nordrhein-Westfalen", 
            "street": "Schulberg 20", 
            "lat": "50.7289294", 
            "lng": "6.178913"
        }
    }, 
    {
        "pk": 542, 
        "model": "api.registrationoffice", 
        "fields": {
            "city": "Aalen", 
            "name": "Einwohnermeldeamt Aalen", 
            "zipcode": "73430", 
            "state": "Baden-W\u00fcrttemberg", 
            "street": "Marktplatz 30", 
            "lat": "48.8369893", 
            "lng": "10.0919813"
        }
    }, 
    {
        "pk": 54, 
        "model": "api.registrationoffice", 
        "fields": {
            "city": "Aarbergen", 
            "name": "Einwohnermeldeamt Aarbergen", 
            "zipcode": "65326", 
            "state": "Hessen", 
            "street": "Rathausstr. 1", 
            "lat": "50.24663", 
            "lng": "8.07218"
        }
    }, 
    {
        "pk": 406, 
        "model": "api.registrationoffice", 
        "fields": {
            "city": "Abstatt", 
            "name": "Einwohnermeldeamt Abstatt", 
            "zipcode": "74232", 
            "state": "Baden-W\u00fcrttemberg", 
            "street": "Rathausstra\u00dfe 30", 
            "lat": "49.067959", 
            "lng": "9.2898447"
        }
    }, 
    {
        "pk": 1526, 
        "model": "api.registrationoffice", 
        "fields": {
            "city": "Abtsteinach", 
            "name": "Einwohnermeldeamt Abtsteinach", 
            "zipcode": "69518", 
            "state": "Hessen", 
            "street": "Kirchstra\u00dfe 2", 
            "lat": "49.5443578", 
            "lng": "8.7854097"
        }
    }, 
    {
        "pk": 467, 
        "model": "api.registrationoffice", 
        "fields": {
            "city": "Achern", 
            "name": "Einwohnermeldeamt Achern", 
            "zipcode": "77855", 
            "state": "Baden-W\u00fcrttemberg", 
            "street": "Rathausplatz 1", 
            "lat": "48.62838", 
            "lng": "8.07162"
        }
    }, 
    {
        "pk": 468, 
        "model": "api.registrationoffice", 
        "fields": {
            "city": "Achern", 
            "name": "Einwohnermeldeamt Achern Fautenbach", 
            "zipcode": "77855", 
            "state": "Baden-W\u00fcrttemberg", 
            "street": "Bundesstr. 18", 
            "lat": "48.62366", 
            "lng": "8.05062"
        }
    }, 
    {
        "pk": 469, 
        "model": "api.registrationoffice", 
        "fields": {
            "city": "Achern", 
            "name": "Einwohnermeldeamt Achern Gamshurst", 
            "zipcode": "77855", 
            "state": "Baden-W\u00fcrttemberg", 
            "street": "Lange Str. 130", 
            "lat": "48.6632993", 
            "lng": "8.01868"
        }
    }, 
    {
        "pk": 470, 
        "model": "api.registrationoffice", 
        "fields": {
            "city": "Achern", 
            "name": "Einwohnermeldeamt Achern Gro\u00dfweier", 
            "zipcode": "77855", 
            "state": "Baden-W\u00fcrttemberg", 
            "street": "Gro\u00dfweierer Str. 80", 
            "lat": "48.65431", 
            "lng": "8.04731"
        }
    }, 
    {
        "pk": 471, 
        "model": "api.registrationoffice", 
        "fields": {
            "city": "Achern", 
            "name": "Einwohnermeldeamt Achern M\u00f6sbach", 
            "zipcode": "77855", 
            "state": "Baden-W\u00fcrttemberg", 
            "street": "Renchtalstra\u00dfe 40", 
            "lat": "48.59601", 
            "lng": "8.06473"
        }
    }, 
    {
        "pk": 472, 
        "model": "api.registrationoffice", 
        "fields": {
            "city": "Achern", 
            "name": "Einwohnermeldeamt Achern \u00d6nsbach", 
            "zipcode": "77855", 
            "state": "Baden-W\u00fcrttemberg", 
            "street": "Rathausstr. 10", 
            "lat": "48.6057158", 
            "lng": "8.0350447"
        }
    }, 
    {
        "pk": 473, 
        "model": "api.registrationoffice", 
        "fields": {
            "city": "Achern", 
            "name": "Einwohnermeldeamt Achern Sasbachried", 
            "zipcode": "77855", 
            "state": "Baden-W\u00fcrttemberg", 
            "street": "Rieder Str. 12", 
            "lat": "48.6566652", 
            "lng": "8.0836607"
        }
    }, 
    {
        "pk": 474, 
        "model": "api.registrationoffice", 
        "fields": {
            "city": "Achern", 
            "name": "Einwohnermeldeamt Achern Wagshurst", 
            "zipcode": "77855", 
            "state": "Baden-W\u00fcrttemberg", 
            "street": "Hanauerstr. 40", 
            "lat": "48.6203266", 
            "lng": "7.9941215"
        }
    }, 
    {
        "pk": 819, 
        "model": "api.registrationoffice", 
        "fields": {
            "city": "Achim", 
            "name": "Einwohnermeldeamt Achim", 
            "zipcode": "28832", 
            "state": "Niedersachsen", 
            "street": "Obernstra\u00dfe 38", 
            "lat": "53.01173", 
            "lng": "9.036571"
        }
    }, 
    {
        "pk": 610, 
        "model": "api.registrationoffice", 
        "fields": {
            "city": "Affalterbach", 
            "name": "Einwohnermeldeamt Affalterbach", 
            "zipcode": "71563", 
            "state": "Baden-W\u00fcrttemberg", 
            "street": "Marbacher Stra\u00dfe 17", 
            "lat": "48.92257", 
            "lng": "9.32223"
        }
    }, 
    {
        "pk": 120, 
        "model": "api.registrationoffice", 
        "fields": {
            "city": "Ahaus", 
            "name": "Einwohnermeldeamt Ahaus", 
            "zipcode": "48683", 
            "state": "Nordrhein-Westfalen", 
            "street": "Rathausplatz 1", 
            "lat": "52.0739063", 
            "lng": "7.0078812"
        }
    }, 
    {
        "pk": 1319, 
        "model": "api.registrationoffice", 
        "fields": {
            "city": "Ahlen", 
            "name": "Einwohnermeldeamt Ahlen", 
            "zipcode": "59227", 
            "state": "Nordrhein-Westfalen", 
            "street": "Westenmauer 10", 
            "lat": "51.7609847", 
            "lng": "7.8886657"
        }
    }, 
    {
        "pk": 768, 
        "model": "api.registrationoffice", 
        "fields": {
            "city": "Ahrensburg", 
            "name": "Einwohnermeldeamt Ahrensburg", 
            "zipcode": "22926", 
            "state": "Schleswig-Holstein", 
            "street": "Manfred-Samusch-Stra\u00dfe 5", 
            "lat": "53.6731677", 
            "lng": "10.2362173"
        }
    }, 
    {
        "pk": 1039, 
        "model": "api.registrationoffice", 
        "fields": {
            "city": "Aichach", 
            "name": "Einwohnermeldeamt Aichach", 
            "zipcode": "86551", 
            "state": "Bayern", 
            "street": "Tandlmarkt 13", 
            "lat": "48.4590397", 
            "lng": "11.1327158"
        }
    }, 
    {
        "pk": 1570, 
        "model": "api.registrationoffice", 
        "fields": {
            "city": "Albstadt", 
            "name": "Einwohnermeldeamt Albstadt", 
            "zipcode": "72458", 
            "state": "Baden-W\u00fcrttemberg", 
            "street": "Marktstra\u00dfe 35", 
            "lat": "48.21262", 
            "lng": "9.02578"
        }
    }, 
    {
        "pk": 261, 
        "model": "api.registrationoffice", 
        "fields": {
            "city": "Aldenhoven", 
            "name": "Einwohnermeldeamt Aldenhoven", 
            "zipcode": "52457", 
            "state": "Nordrhein-Westfalen", 
            "street": "Dietrich- M\u00fclfahrt- Stra\u00dfe 11-13", 
            "lat": "50.8936052", 
            "lng": "6.2834947"
        }
    }, 
    {
        "pk": 402, 
        "model": "api.registrationoffice", 
        "fields": {
            "city": "Alfeld", 
            "name": "Einwohnermeldeamt Alfeld", 
            "zipcode": "31061", 
            "state": "Niedersachsen", 
            "street": "Marktplatz 12", 
            "lat": "51.9872675", 
            "lng": "9.8247124"
        }
    }, 
    {
        "pk": 988, 
        "model": "api.registrationoffice", 
        "fields": {
            "city": "Alfter-Oedekoven", 
            "name": "Einwohnermeldeamt Alfter", 
            "zipcode": "53347", 
            "state": "Nordrhein-Westfalen", 
            "street": "Am Rathaus 7", 
            "lat": "50.72171", 
            "lng": "7.02632"
        }
    }, 
    {
        "pk": 1425, 
        "model": "api.registrationoffice", 
        "fields": {
            "city": "Allmendingen", 
            "name": "Einwohnermeldeamt Allmendingen", 
            "zipcode": "89604", 
            "state": "Baden-W\u00fcrttemberg", 
            "street": "Hauptstrasse 16", 
            "lat": "48.328294", 
            "lng": "9.7243636"
        }
    }, 
    {
        "pk": 1069, 
        "model": "api.registrationoffice", 
        "fields": {
            "city": "Allmersbach", 
            "name": "Einwohnermeldeamt Allmersbach", 
            "zipcode": "71573", 
            "state": "Baden-W\u00fcrttemberg", 
            "street": "Backnanger Stra\u00dfe 42", 
            "lat": "48.90741", 
            "lng": "9.467917"
        }
    }, 
    {
        "pk": 780, 
        "model": "api.registrationoffice", 
        "fields": {
            "city": "Alsdorf", 
            "name": "Einwohnermeldeamt Alsdorf", 
            "zipcode": "52477", 
            "state": "Nordrhein-Westfalen", 
            "street": "Hubertusstr. 17", 
            "lat": "50.8754229", 
            "lng": "6.1662248"
        }
    }, 
    {
        "pk": 447, 
        "model": "api.registrationoffice", 
        "fields": {
            "city": "Alsfeld", 
            "name": "Einwohnermeldeamt Alsfeld", 
            "zipcode": "36304", 
            "state": "Hessen", 
            "street": "Markt 2", 
            "lat": "50.75122", 
            "lng": "9.27111"
        }
    }, 
    {
        "pk": 744, 
        "model": "api.registrationoffice", 
        "fields": {
            "city": "Altena", 
            "name": "Einwohnermeldeamt Altena", 
            "zipcode": "58762", 
            "state": "Nordrhein-Westfalen", 
            "street": "Am Markaner 1", 
            "lat": "51.3014205", 
            "lng": "7.6718171"
        }
    }, 
    {
        "pk": 1348, 
        "model": "api.registrationoffice", 
        "fields": {
            "city": "Altenbeken", 
            "name": "Einwohnermeldeamt Altenbeken", 
            "zipcode": "33184", 
            "state": "Nordrhein-Westfalen", 
            "street": "Bahnhofstra\u00dfe 5 a", 
            "lat": "51.7648", 
            "lng": "8.94173"
        }
    }, 
    {
        "pk": 383, 
        "model": "api.registrationoffice", 
        "fields": {
            "city": "Altenberge", 
            "name": "Einwohnermeldeamt Altenberge", 
            "zipcode": "48341", 
            "state": "Nordrhein-Westfalen", 
            "street": "Kirchstr. 25", 
            "lat": "52.0464343", 
            "lng": "7.4678306"
        }
    }, 
    {
        "pk": 927, 
        "model": "api.registrationoffice", 
        "fields": {
            "city": "Altenburg", 
            "name": "Einwohnermeldeamt Altenburg", 
            "zipcode": "04600", 
            "state": "Th\u00fcringen", 
            "street": "Johannisgraben 4", 
            "lat": "50.9849337", 
            "lng": "12.4292951"
        }
    }, 
    {
        "pk": 284, 
        "model": "api.registrationoffice", 
        "fields": {
            "city": "Altendiez", 
            "name": "Einwohnermeldeamt Altendiez", 
            "zipcode": "65624", 
            "state": "Rheinland-Pfalz", 
            "street": "Holzappeler Str. 3", 
            "lat": "50.3697644", 
            "lng": "7.98264"
        }
    }, 
    {
        "pk": 58, 
        "model": "api.registrationoffice", 
        "fields": {
            "city": "Altheim (Alb)", 
            "name": "Einwohnermeldeamt Altheim", 
            "zipcode": "89174", 
            "state": "Baden-W\u00fcrttemberg", 
            "street": "Schmiedgasse 15", 
            "lat": "48.5804313", 
            "lng": "10.0267892"
        }
    }, 
    {
        "pk": 857, 
        "model": "api.registrationoffice", 
        "fields": {
            "city": "Alth\u00fctte", 
            "name": "Einwohnermeldeamt Alth\u00fctte", 
            "zipcode": "71566", 
            "state": "Baden-W\u00fcrttemberg", 
            "street": "Rathausplatz 1", 
            "lat": "48.9180879", 
            "lng": "9.569692"
        }
    }, 
    {
        "pk": 982, 
        "model": "api.registrationoffice", 
        "fields": {
            "city": "Alzenau", 
            "name": "Einwohnermeldeamt Alzenau", 
            "zipcode": "63755", 
            "state": "Bayern", 
            "street": "Hanauer Stra\u00dfe1", 
            "lat": "50.0880691", 
            "lng": "9.0605752"
        }
    }, 
    {
        "pk": 1385, 
        "model": "api.registrationoffice", 
        "fields": {
            "city": "Alzey", 
            "name": "Einwohnermeldeamt Alzey", 
            "zipcode": "55232", 
            "state": "Rheinland-Pfalz", 
            "street": "Ernst-Ludwig-Stra\u00dfe 42", 
            "lat": "49.7425127", 
            "lng": "8.1092297"
        }
    }, 
    {
        "pk": 777, 
        "model": "api.registrationoffice", 
        "fields": {
            "city": "Amberg", 
            "name": "Einwohnermeldeamt Amberg", 
            "zipcode": "92224", 
            "state": "Bayern", 
            "street": "Marktplatz 11", 
            "lat": "49.4455666", 
            "lng": "11.8587908"
        }
    }, 
    {
        "pk": 1197, 
        "model": "api.registrationoffice", 
        "fields": {
            "city": "Amstetten", 
            "name": "Einwohnermeldeamt Amstetten", 
            "zipcode": "73340", 
            "state": "Baden-W\u00fcrttemberg", 
            "street": "Lonetalstra\u00dfe 19", 
            "lat": "48.5779476", 
            "lng": "9.8723297"
        }
    }, 
    {
        "pk": 1549, 
        "model": "api.registrationoffice", 
        "fields": {
            "city": "Andernach", 
            "name": "Einwohnermeldeamt Andernach", 
            "zipcode": "56626", 
            "state": "Rheinland-Pfalz", 
            "street": "L\u00e4ufstr. 11", 
            "lat": "50.4394016", 
            "lng": "7.4019956"
        }
    }, 
    {
        "pk": 1322, 
        "model": "api.registrationoffice", 
        "fields": {
            "city": "Anhausen", 
            "name": "Einwohnermeldeamt Anhausen", 
            "zipcode": "56584", 
            "state": "Rheinland-Pfalz", 
            "street": "Auf dem L\u00f6h 10", 
            "lat": "50.49738", 
            "lng": "7.55799"
        }
    }, 
    {
        "pk": 823, 
        "model": "api.registrationoffice", 
        "fields": {
            "city": "Annaberg-Buchholz", 
            "name": "Einwohnermeldeamt Annaberg-Buchholz", 
            "zipcode": "09456", 
            "state": "Sachsen", 
            "street": "Markt 1", 
            "lat": "50.5802765", 
            "lng": "13.0026613"
        }
    }, 
    {
        "pk": 1550, 
        "model": "api.registrationoffice", 
        "fields": {
            "city": "Anr\u00f6chte", 
            "name": "Einwohnermeldeamt Anr\u00f6chte", 
            "zipcode": "59609", 
            "state": "Nordrhein-Westfalen", 
            "street": "Einwohnerwesen", 
            "lat": "51.5622033", 
            "lng": "8.3256218"
        }
    }, 
    {
        "pk": 317, 
        "model": "api.registrationoffice", 
        "fields": {
            "city": "Ansbach", 
            "name": "Einwohnermeldeamt Ansbach", 
            "zipcode": "91522", 
            "state": "Bayern", 
            "street": "N\u00fcrnberger Stra\u00dfe 32", 
            "lat": "49.30364", 
            "lng": "10.57865"
        }
    }, 
    {
        "pk": 1091, 
        "model": "api.registrationoffice", 
        "fields": {
            "city": "Apolda", 
            "name": "Einwohnermeldeamt Apolda", 
            "zipcode": "99510", 
            "state": "Th\u00fcringen", 
            "street": "Am Stadthaus 1", 
            "lat": "51.023206", 
            "lng": "11.5156281"
        }
    }, 
    {
        "pk": 440, 
        "model": "api.registrationoffice", 
        "fields": {
            "city": "Appenweier", 
            "name": "Einwohnermeldeamt Appenweier", 
            "zipcode": "77767", 
            "state": "Baden-W\u00fcrttemberg", 
            "street": "Ortenauer Str. 13", 
            "lat": "48.5372759", 
            "lng": "7.978311"
        }
    }, 
    {
        "pk": 1251, 
        "model": "api.registrationoffice", 
        "fields": {
            "city": "Arnsberg", 
            "name": "Einwohnermeldeamt Arnsberg Altes Rathaus", 
            "zipcode": "59821", 
            "state": "Nordrhein-Westfalen", 
            "street": "Alter Markt 19", 
            "lat": "51.3973703", 
            "lng": "8.0640646"
        }
    }, 
    {
        "pk": 1252, 
        "model": "api.registrationoffice", 
        "fields": {
            "city": "Arnsberg", 
            "name": "Einwohnermeldeamt Arnsberg H\u00fcsten", 
            "zipcode": "59759", 
            "state": "Nordrhein-Westfalen", 
            "street": "Marktstr. 3", 
            "lat": "51.4293253", 
            "lng": "7.99408"
        }
    }, 
    {
        "pk": 1253, 
        "model": "api.registrationoffice", 
        "fields": {
            "city": "Arnsberg", 
            "name": "Einwohnermeldeamt Arnsberg Neheim", 
            "zipcode": "59755", 
            "state": "Nordrhein-Westfalen", 
            "street": "Schwester-Aicharda-Str. 12", 
            "lat": "51.4504", 
            "lng": "7.96746"
        }
    }, 
    {
        "pk": 1254, 
        "model": "api.registrationoffice", 
        "fields": {
            "city": "Arnsberg", 
            "name": "Einwohnermeldeamt Arnsberg Oeventrop", 
            "zipcode": "59823", 
            "state": "Nordrhein-Westfalen", 
            "street": "Kirchstr. 47", 
            "lat": "51.39533", 
            "lng": "8.1357631"
        }
    }, 
    {
        "pk": 1255, 
        "model": "api.registrationoffice", 
        "fields": {
            "city": "Arnsberg", 
            "name": "Einwohnermeldeamt Arnsberg Rathaus", 
            "zipcode": "59759", 
            "state": "Nordrhein-Westfalen", 
            "street": "Rathausplatz 1", 
            "lat": "51.4404348", 
            "lng": "7.9725391"
        }
    }, 
    {
        "pk": 999, 
        "model": "api.registrationoffice", 
        "fields": {
            "city": "Arnstadt", 
            "name": "Einwohnermeldeamt Arnstadt", 
            "zipcode": "99310", 
            "state": "Th\u00fcringen", 
            "street": "Markt 1", 
            "lat": "50.8343551", 
            "lng": "10.9459014"
        }
    }, 
    {
        "pk": 1213, 
        "model": "api.registrationoffice", 
        "fields": {
            "city": "Arzbach", 
            "name": "Einwohnermeldeamt Arzbach", 
            "zipcode": "56337", 
            "state": "Rheinland-Pfalz", 
            "street": "Am Rathaus 2", 
            "lat": "50.37892", 
            "lng": "7.74769"
        }
    }, 
    {
        "pk": 1547, 
        "model": "api.registrationoffice", 
        "fields": {
            "city": "Asbach", 
            "name": "Einwohnermeldeamt Asbach", 
            "zipcode": "53567", 
            "state": "Rheinland-Pfalz", 
            "street": "Flammersfelder Str. 1", 
            "lat": "50.66645", 
            "lng": "7.42807"
        }
    }, 
    {
        "pk": 1126, 
        "model": "api.registrationoffice", 
        "fields": {
            "city": "Aschaffenburg", 
            "name": "Einwohnermeldeamt Aschaffenburg", 
            "zipcode": "63739", 
            "state": "Bayern", 
            "street": "Dalbergstr. 15", 
            "lat": "49.97327", 
            "lng": "9.14504"
        }
    }, 
    {
        "pk": 1158, 
        "model": "api.registrationoffice", 
        "fields": {
            "city": "Ascheberg", 
            "name": "Einwohnermeldeamt Ascheberg", 
            "zipcode": "59387", 
            "state": "Nordrhein-Westfalen", 
            "street": "Dieningstra\u00dfe 7", 
            "lat": "51.7900124", 
            "lng": "7.6216769"
        }
    }, 
    {
        "pk": 476, 
        "model": "api.registrationoffice", 
        "fields": {
            "city": "Aschersleben", 
            "name": "Einwohnermeldeamt Aschersleben", 
            "zipcode": "06449", 
            "state": "Sachsen-Anhalt", 
            "street": "Markt 1", 
            "lat": "51.75593", 
            "lng": "11.45591"
        }
    }, 
    {
        "pk": 1257, 
        "model": "api.registrationoffice", 
        "fields": {
            "city": "Aspach", 
            "name": "Einwohnermeldeamt Aspach", 
            "zipcode": "71546", 
            "state": "Baden-W\u00fcrttemberg", 
            "street": "Backnanger Stra\u00dfe 9", 
            "lat": "48.9663463", 
            "lng": "9.3997617"
        }
    }, 
    {
        "pk": 611, 
        "model": "api.registrationoffice", 
        "fields": {
            "city": "Attendorn", 
            "name": "Einwohnermeldeamt Attendorn", 
            "zipcode": "57439", 
            "state": "Nordrhein-Westfalen", 
            "street": "K\u00f6lner Stra\u00dfe 12", 
            "lat": "51.12581", 
            "lng": "7.9011"
        }
    }, 
    {
        "pk": 132, 
        "model": "api.registrationoffice", 
        "fields": {
            "city": "Aue", 
            "name": "Einwohnermeldeamt Aue", 
            "zipcode": "08280", 
            "state": "Sachsen", 
            "street": "Goethestra\u00dfe 5", 
            "lat": "50.58727", 
            "lng": "12.69852"
        }
    }, 
    {
        "pk": 1283, 
        "model": "api.registrationoffice", 
        "fields": {
            "city": "Auenwald", 
            "name": "Einwohnermeldeamt Auenwald", 
            "zipcode": "71549", 
            "state": "Baden-W\u00fcrttemberg", 
            "street": "Lippoldsweilerstra\u00dfe 15", 
            "lat": "48.93738", 
            "lng": "9.50156"
        }
    }, 
    {
        "pk": 164, 
        "model": "api.registrationoffice", 
        "fields": {
            "city": "Auerbach", 
            "name": "Einwohnermeldeamt Auerbach", 
            "zipcode": "08209", 
            "state": "Sachsen", 
            "street": "Schulstr.1", 
            "lat": "50.5077888", 
            "lng": "12.3986933"
        }
    }, 
    {
        "pk": 1101, 
        "model": "api.registrationoffice", 
        "fields": {
            "city": "Augsburg", 
            "name": "Einwohnermeldeamt Augsburg Stadtmitte", 
            "zipcode": "86152", 
            "state": "Bayern", 
            "street": "An der Blauen Kappe 18", 
            "lat": "48.37395", 
            "lng": "10.88807"
        }
    }, 
    {
        "pk": 1102, 
        "model": "api.registrationoffice", 
        "fields": {
            "city": "Augsburg", 
            "name": "Einwohnermeldeamt Augsburg Haunstetten", 
            "zipcode": "86179", 
            "state": "Bayern", 
            "street": "Tattenbachstr. 15", 
            "lat": "48.3079316", 
            "lng": "10.9075363"
        }
    }, 
    {
        "pk": 1103, 
        "model": "api.registrationoffice", 
        "fields": {
            "city": "Augsburg", 
            "name": "Einwohnermeldeamt Augsburg Lechhausen", 
            "zipcode": "86167", 
            "state": "Bayern", 
            "street": "Neuburger Str. 20", 
            "lat": "48.3790324", 
            "lng": "10.9149245"
        }
    }, 
    {
        "pk": 853, 
        "model": "api.registrationoffice", 
        "fields": {
            "city": "Augustdorf", 
            "name": "Einwohnermeldeamt Augustdorf", 
            "zipcode": "32832", 
            "state": "Nordrhein-Westfalen", 
            "street": "Pivitsheider Stra\u00dfe 16", 
            "lat": "51.90778", 
            "lng": "8.73606"
        }
    }, 
    {
        "pk": 772, 
        "model": "api.registrationoffice", 
        "fields": {
            "city": "Aurich", 
            "name": "Einwohnermeldeamt Aurich", 
            "zipcode": "26603", 
            "state": "Niedersachsen", 
            "street": "Bgm-Hippen-Platz 1", 
            "lat": "53.468", 
            "lng": "7.48399"
        }
    }, 
    {
        "pk": 208, 
        "model": "api.registrationoffice", 
        "fields": {
            "city": "Backnang", 
            "name": "Einwohnermeldeamt Backnang", 
            "zipcode": "71522", 
            "state": "Baden-W\u00fcrttemberg", 
            "street": "Im Biegel 13", 
            "lat": "48.9485988", 
            "lng": "9.4307109"
        }
    }, 
    {
        "pk": 1503, 
        "model": "api.registrationoffice", 
        "fields": {
            "city": "Bad Aibling", 
            "name": "Einwohnermeldeamt Bad Aibling", 
            "zipcode": "83043", 
            "state": "Bayern", 
            "street": "Am Klafferer 4", 
            "lat": "47.86503", 
            "lng": "12.01304"
        }
    }, 
    {
        "pk": 832, 
        "model": "api.registrationoffice", 
        "fields": {
            "city": "Bad Arolsen", 
            "name": "Einwohnermeldeamt Bad Arolsen", 
            "zipcode": "34454", 
            "state": "Hessen", 
            "street": "Gro\u00dfe Allee 24", 
            "lat": "51.37896", 
            "lng": "9.01677"
        }
    }, 
    {
        "pk": 663, 
        "model": "api.registrationoffice", 
        "fields": {
            "city": "Bad Berleburg", 
            "name": "Einwohnermeldeamt Bad Berleburg", 
            "zipcode": "57319", 
            "state": "Nordrhein-Westfalen", 
            "street": "Poststra\u00dfe 42", 
            "lat": "51.0541896", 
            "lng": "8.3932404"
        }
    }, 
    {
        "pk": 1281, 
        "model": "api.registrationoffice", 
        "fields": {
            "city": "Bad Camberg", 
            "name": "Einwohnermeldeamt Bad Camberg", 
            "zipcode": "65520", 
            "state": "Hessen", 
            "street": "Chambray-l\u00e9s-Tours-Platz 1", 
            "lat": "50.2975106", 
            "lng": "8.2721407"
        }
    }, 
    {
        "pk": 1495, 
        "model": "api.registrationoffice", 
        "fields": {
            "city": "Bad Driburg", 
            "name": "Einwohnermeldeamt Bad Driburg", 
            "zipcode": "33014", 
            "state": "Nordrhein-Westfalen", 
            "street": "Am Rathausplatz 2", 
            "lat": "51.7341076", 
            "lng": "9.0248409"
        }
    }, 
    {
        "pk": 877, 
        "model": "api.registrationoffice", 
        "fields": {
            "city": "Bad D\u00fcrkheim", 
            "name": "Einwohnermeldeamt Bad D\u00fcrkheim", 
            "zipcode": "67098", 
            "state": "Rheinland-Pfalz", 
            "street": "Mannheimer Stra\u00dfe 24", 
            "lat": "49.4611727", 
            "lng": "8.1690945"
        }
    }, 
    {
        "pk": 764, 
        "model": "api.registrationoffice", 
        "fields": {
            "city": "Bad Ems", 
            "name": "Einwohnermeldeamt Bad Ems", 
            "zipcode": "56130", 
            "state": "Rheinland-Pfalz", 
            "street": "Bleichstra\u00dfe 1", 
            "lat": "50.3349113", 
            "lng": "7.714029"
        }
    }, 
    {
        "pk": 125, 
        "model": "api.registrationoffice", 
        "fields": {
            "city": "Bad Friedrichshall", 
            "name": "Einwohnermeldeamt Bad Friedrichshall", 
            "zipcode": "74177", 
            "state": "Baden-W\u00fcrttemberg", 
            "street": "Rathausplatz 1", 
            "lat": "49.22756", 
            "lng": "9.21026"
        }
    }, 
    {
        "pk": 1051, 
        "model": "api.registrationoffice", 
        "fields": {
            "city": "Bad Harzburg", 
            "name": "Einwohnermeldeamt Bad Harzburg", 
            "zipcode": "38667", 
            "state": "Niedersachsen", 
            "street": "Serviceb\u00fcro", 
            "lat": "51.8866888", 
            "lng": "10.5522144"
        }
    }, 
    {
        "pk": 1157, 
        "model": "api.registrationoffice", 
        "fields": {
            "city": "Bad Hersfeld", 
            "name": "Einwohnermeldeamt Bad Hersfeld", 
            "zipcode": "36251", 
            "state": "Hessen", 
            "street": "Am Markt 16", 
            "lat": "50.8684273", 
            "lng": "9.7041017"
        }
    }, 
    {
        "pk": 339, 
        "model": "api.registrationoffice", 
        "fields": {
            "city": "Bad Homburg", 
            "name": "Einwohnermeldeamt Bad Homburg", 
            "zipcode": "61343", 
            "state": "Hessen", 
            "street": "Rathausplatz 1", 
            "lat": "50.2240027", 
            "lng": "8.6220726"
        }
    }, 
    {
        "pk": 376, 
        "model": "api.registrationoffice", 
        "fields": {
            "city": "Bad Honnef", 
            "name": "Einwohnermeldeamt Bad Honnef", 
            "zipcode": "53604", 
            "state": "Nordrhein-Westfalen", 
            "street": "Rathausplatz 1", 
            "lat": "50.64444", 
            "lng": "7.22962"
        }
    }, 
    {
        "pk": 377, 
        "model": "api.registrationoffice", 
        "fields": {
            "city": "Bad Honnef", 
            "name": "Einwohnermeldeamt Bad Honnef Aegidienberg", 
            "zipcode": "53604", 
            "state": "Nordrhein-Westfalen", 
            "street": "Aegidiusplatz 10", 
            "lat": "50.66245", 
            "lng": "7.30335"
        }
    }, 
    {
        "pk": 572, 
        "model": "api.registrationoffice", 
        "fields": {
            "city": "Bad H\u00f6nningen", 
            "name": "Einwohnermeldeamt Bad H\u00f6nningen", 
            "zipcode": "53557", 
            "state": "Rheinland-Pfalz", 
            "street": "Marktstr. 1", 
            "lat": "50.5157463", 
            "lng": "7.3061705"
        }
    }, 
    {
        "pk": 315, 
        "model": "api.registrationoffice", 
        "fields": {
            "city": "Bad Kissingen", 
            "name": "Einwohnermeldeamt Bad Kissingen", 
            "zipcode": "97688", 
            "state": "Bayern", 
            "street": "B\u00fcrgerb\u00fcro", 
            "lat": "50.2007337", 
            "lng": "10.080392"
        }
    }, 
    {
        "pk": 1588, 
        "model": "api.registrationoffice", 
        "fields": {
            "city": "Bad Kreuznach", 
            "name": "Einwohnermeldeamt Bad Kreuznach", 
            "zipcode": "55545", 
            "state": "Rheinland-Pfalz", 
            "street": "Eiermarkt 14", 
            "lat": "49.84691", 
            "lng": "7.85671"
        }
    }, 
    {
        "pk": 682, 
        "model": "api.registrationoffice", 
        "fields": {
            "city": "Bad Laasphe", 
            "name": "Einwohnermeldeamt Bad Laasphe", 
            "zipcode": "57334", 
            "state": "Nordrhein-Westfalen", 
            "street": "M\u00fchlenstra\u00dfe 20", 
            "lat": "50.92512", 
            "lng": "8.41316"
        }
    }, 
    {
        "pk": 392, 
        "model": "api.registrationoffice", 
        "fields": {
            "city": "Bad Langensalza", 
            "name": "Einwohnermeldeamt Aschara", 
            "zipcode": "99947", 
            "state": "Th\u00fcringen", 
            "street": "M\u00fchlh\u00e4user Str. 40", 
            "lat": "51.1089599", 
            "lng": "10.6450395"
        }
    }, 
    {
        "pk": 976, 
        "model": "api.registrationoffice", 
        "fields": {
            "city": "Bad Lippspringe", 
            "name": "Einwohnermeldeamt Bad Lippspringe", 
            "zipcode": "33175", 
            "state": "Nordrhein-Westfalen", 
            "street": "Friedrich-Wilhelm-Weber Platz 1", 
            "lat": "51.78385", 
            "lng": "8.81751"
        }
    }, 
    {
        "pk": 341, 
        "model": "api.registrationoffice", 
        "fields": {
            "city": "Bad Mergentheim", 
            "name": "Einwohnermeldeamt Bad Mergentheim", 
            "zipcode": "97980", 
            "state": "Baden-W\u00fcrttemberg", 
            "street": "Bahnhofplatz 1", 
            "lat": "49.49305", 
            "lng": "9.77206"
        }
    }, 
    {
        "pk": 1240, 
        "model": "api.registrationoffice", 
        "fields": {
            "city": "Bad M\u00fcnder", 
            "name": "Einwohnermeldeamt Bad M\u00fcnder", 
            "zipcode": "31848", 
            "state": "Niedersachsen", 
            "street": "Obertorstr. 1/3", 
            "lat": "52.1983242", 
            "lng": "9.4632477"
        }
    }, 
    {
        "pk": 685, 
        "model": "api.registrationoffice", 
        "fields": {
            "city": "Bad M\u00fcnstereifel", 
            "name": "Einwohnermeldeamt Bad M\u00fcnstereifel", 
            "zipcode": "53902", 
            "state": "Nordrhein-Westfalen", 
            "street": "Marktstra\u00dfe 11-15", 
            "lat": "50.5540416", 
            "lng": "6.762574"
        }
    }, 
    {
        "pk": 1196, 
        "model": "api.registrationoffice", 
        "fields": {
            "city": "Bad Nauheim", 
            "name": "Einwohnermeldeamt Bad Nauheim", 
            "zipcode": "61231", 
            "state": "Hessen", 
            "street": "Parkstrasse 36 - 38", 
            "lat": "50.3653701", 
            "lng": "8.7355798"
        }
    }, 
    {
        "pk": 741, 
        "model": "api.registrationoffice", 
        "fields": {
            "city": "Bad Neuenahr-Ahrweiler", 
            "name": "Einwohnermeldeamt Bad Neuenahr-Ahrweiler", 
            "zipcode": "53474", 
            "state": "Rheinland-Pfalz", 
            "street": "Hauptstra\u00dfe 116", 
            "lat": "50.5463", 
            "lng": "7.13559"
        }
    }, 
    {
        "pk": 0, 
        "model": "api.registrationoffice", 
        "fields": {
            "city": "Bad Oeynhausen", 
            "name": "Einwohnermeldeamt Bad Oeynhausen", 
            "zipcode": "32545", 
            "state": "Nordrhein-Westfalen", 
            "street": "Ostkorso 8", 
            "lat": "52.2001375", 
            "lng": "8.7992189"
        }
    }, 
    {
        "pk": 1552, 
        "model": "api.registrationoffice", 
        "fields": {
            "city": "Bad Oldesloe", 
            "name": "Einwohnermeldeamt Bad Oldesloe", 
            "zipcode": "23843", 
            "state": "Schleswig-Holstein", 
            "street": "Markt 5", 
            "lat": "53.8100224", 
            "lng": "10.3735562"
        }
    }, 
    {
        "pk": 563, 
        "model": "api.registrationoffice", 
        "fields": {
            "city": "Bad Peterstal-Griesbach", 
            "name": "Einwohnermeldeamt Bad Peterstal-Griesbach", 
            "zipcode": "77740", 
            "state": "Baden-W\u00fcrttemberg", 
            "street": "Kniebisstra\u00dfe 31", 
            "lat": "48.4499556", 
            "lng": "8.2355921"
        }
    }, 
    {
        "pk": 994, 
        "model": "api.registrationoffice", 
        "fields": {
            "city": "Bad Pyrmont", 
            "name": "Einwohnermeldeamt Bad Pyrmont", 
            "zipcode": "31812", 
            "state": "Niedersachsen", 
            "street": "Rathausstra\u00dfe 1", 
            "lat": "51.9859839", 
            "lng": "9.256951"
        }
    }, 
    {
        "pk": 1256, 
        "model": "api.registrationoffice", 
        "fields": {
            "city": "Bad Rappenau", 
            "name": "Einwohnermeldeamt Bad Rappenau", 
            "zipcode": "74906", 
            "state": "Baden-W\u00fcrttemberg", 
            "street": "Kirchplatz 4", 
            "lat": "49.23975", 
            "lng": "9.10142"
        }
    }, 
    {
        "pk": 410, 
        "model": "api.registrationoffice", 
        "fields": {
            "city": "Bad Reichenhall", 
            "name": "Einwohnermeldeamt Bad Reichenhall", 
            "zipcode": "83435", 
            "state": "Bayern", 
            "street": "Rathausplatz 8", 
            "lat": "47.72207", 
            "lng": "12.87584"
        }
    }, 
    {
        "pk": 1308, 
        "model": "api.registrationoffice", 
        "fields": {
            "city": "Bad Salzuflen", 
            "name": "Einwohnermeldeamt Bad Salzuflen", 
            "zipcode": "32105", 
            "state": "Nordrhein-Westfalen", 
            "street": "Rudolph-Brandes-Allee 19", 
            "lat": "52.07758", 
            "lng": "8.7551"
        }
    }, 
    {
        "pk": 285, 
        "model": "api.registrationoffice", 
        "fields": {
            "city": "Bad Sassendorf", 
            "name": "Einwohnermeldeamt Bad Sassendorf", 
            "zipcode": "59505", 
            "state": "Nordrhein-Westfalen", 
            "street": "Eichendorffstra\u00dfe 1", 
            "lat": "51.58484", 
            "lng": "8.17132"
        }
    }, 
    {
        "pk": 876, 
        "model": "api.registrationoffice", 
        "fields": {
            "city": "Bad Saulgau", 
            "name": "Einwohnermeldeamt Bad Saulgau", 
            "zipcode": "88348", 
            "state": "Baden-W\u00fcrttemberg", 
            "street": "Oberamteistra\u00dfe 11", 
            "lat": "48.01885", 
            "lng": "9.4999"
        }
    }, 
    {
        "pk": 1106, 
        "model": "api.registrationoffice", 
        "fields": {
            "city": "Bad Schwalbach", 
            "name": "Einwohnermeldeamt Bad Schwalbach", 
            "zipcode": "65307", 
            "state": "Hessen", 
            "street": "Adolfstra\u00dfe 38", 
            "lat": "50.14157", 
            "lng": "8.07238"
        }
    }, 
    {
        "pk": 101, 
        "model": "api.registrationoffice", 
        "fields": {
            "city": "Bad Schwartau", 
            "name": "Einwohnermeldeamt Bad Schwartau", 
            "zipcode": "23611", 
            "state": "Schleswig-Holstein", 
            "street": "Markt 15", 
            "lat": "53.9200962", 
            "lng": "10.6976845"
        }
    }, 
    {
        "pk": 897, 
        "model": "api.registrationoffice", 
        "fields": {
            "city": "Bad Soden", 
            "name": "Einwohnermeldeamt Bad Soden", 
            "zipcode": "65812", 
            "state": "Hessen", 
            "street": "Kronberger Stra\u00dfe 1", 
            "lat": "50.145", 
            "lng": "8.50376"
        }
    }, 
    {
        "pk": 1431, 
        "model": "api.registrationoffice", 
        "fields": {
            "city": "Bad T\u00f6lz", 
            "name": "Einwohnermeldeamt Bad T\u00f6lz", 
            "zipcode": "83646", 
            "state": "Bayern", 
            "street": "Am Schlo\u00dfplatz 1", 
            "lat": "47.7602398", 
            "lng": "11.5622018"
        }
    }, 
    {
        "pk": 262, 
        "model": "api.registrationoffice", 
        "fields": {
            "city": "Bad Vilbel", 
            "name": "Einwohnermeldeamt Bad Vilbel", 
            "zipcode": "61118", 
            "state": "Hessen", 
            "street": "Parkstra\u00dfe 15", 
            "lat": "50.1833", 
            "lng": "8.7404"
        }
    }, 
    {
        "pk": 50, 
        "model": "api.registrationoffice", 
        "fields": {
            "city": "Bad Wildungen", 
            "name": "Einwohnermeldeamt Bad Wildungen", 
            "zipcode": "34537", 
            "state": "Hessen", 
            "street": "Am Markt 1", 
            "lat": "51.1196745", 
            "lng": "9.1241131"
        }
    }, 
    {
        "pk": 782, 
        "model": "api.registrationoffice", 
        "fields": {
            "city": "Bad Wimpfen", 
            "name": "Einwohnermeldeamt Bad Wimpfen", 
            "zipcode": "74206", 
            "state": "Baden-W\u00fcrttemberg", 
            "street": "Marktplatz1", 
            "lat": "49.23037", 
            "lng": "9.16263"
        }
    }, 
    {
        "pk": 1049, 
        "model": "api.registrationoffice", 
        "fields": {
            "city": "Bad W\u00fcnnenberg", 
            "name": "Einwohnermeldeamt Bad W\u00fcnnenberg", 
            "zipcode": "33181", 
            "state": "Nordrhein-Westfalen", 
            "street": "Poststra\u00dfe 15", 
            "lat": "51.5163934", 
            "lng": "8.7449587"
        }
    }, 
    {
        "pk": 1701, 
        "model": "api.registrationoffice", 
        "fields": {
            "city": "Bad Zwischenahn", 
            "name": "Einwohnermeldeamt Bad Zwischenahn", 
            "zipcode": "26160", 
            "state": "Niedersachsen", 
            "street": "Am Brink 9", 
            "lat": "53.18674", 
            "lng": "8.00489"
        }
    }, 
    {
        "pk": 1532, 
        "model": "api.registrationoffice", 
        "fields": {
            "city": "Baden-Baden", 
            "name": "Einwohnermeldeamt Baden-Baden Briegelacker", 
            "zipcode": "76532", 
            "state": "Baden-W\u00fcrttemberg", 
            "street": "Briegelackerstra\u00dfe 21", 
            "lat": "48.77873", 
            "lng": "8.21292"
        }
    }, 
    {
        "pk": 1533, 
        "model": "api.registrationoffice", 
        "fields": {
            "city": "Baden-Baden", 
            "name": "Einwohnermeldeamt Baden-Baden Ebersteinburg", 
            "zipcode": "76530", 
            "state": "Baden-W\u00fcrttemberg", 
            "street": "Ebersteinburger Stra\u00dfe 54", 
            "lat": "48.78011", 
            "lng": "8.26956"
        }
    }, 
    {
        "pk": 1534, 
        "model": "api.registrationoffice", 
        "fields": {
            "city": "Baden-Baden", 
            "name": "Einwohnermeldeamt Baden-Baden Haueneberstein", 
            "zipcode": "76532", 
            "state": "Baden-W\u00fcrttemberg", 
            "street": "Rathausplatz 1", 
            "lat": "48.80615", 
            "lng": "8.22195"
        }
    }, 
    {
        "pk": 1535, 
        "model": "api.registrationoffice", 
        "fields": {
            "city": "Baden-Baden", 
            "name": "Einwohnermeldeamt Baden-Baden Rebland", 
            "zipcode": "76534", 
            "state": "Baden-W\u00fcrttemberg", 
            "street": "Steinbacher Stra\u00dfe 55", 
            "lat": "48.7285311", 
            "lng": "8.160633"
        }
    }, 
    {
        "pk": 1536, 
        "model": "api.registrationoffice", 
        "fields": {
            "city": "Baden-Baden", 
            "name": "Einwohnermeldeamt Baden-Baden Sandweier", 
            "zipcode": "76532", 
            "state": "Baden-W\u00fcrttemberg", 
            "street": "Iffezheimer Stra\u00dfe 5", 
            "lat": "48.8087", 
            "lng": "8.19403"
        }
    }, 
    {
        "pk": 443, 
        "model": "api.registrationoffice", 
        "fields": {
            "city": "Baesweiler", 
            "name": "Einwohnermeldeamt Baesweiler", 
            "zipcode": "52499", 
            "state": "Nordrhein-Westfalen", 
            "street": "Mariastra\u00dfe 2", 
            "lat": "50.9022964", 
            "lng": "6.1825734"
        }
    }, 
    {
        "pk": 1712, 
        "model": "api.registrationoffice", 
        "fields": {
            "city": "Balingen", 
            "name": "Einwohnermeldeamt Balingen", 
            "zipcode": "72336", 
            "state": "Baden-W\u00fcrttemberg", 
            "street": "F\u00e4rberstra\u00dfe 2", 
            "lat": "48.2729797", 
            "lng": "8.8515926"
        }
    }, 
    {
        "pk": 1056, 
        "model": "api.registrationoffice", 
        "fields": {
            "city": "Balve", 
            "name": "Einwohnermeldeamt Balve", 
            "zipcode": "58802", 
            "state": "Nordrhein-Westfalen", 
            "street": "Widukindplatz 1", 
            "lat": "51.3293608", 
            "lng": "7.8625795"
        }
    }, 
    {
        "pk": 1411, 
        "model": "api.registrationoffice", 
        "fields": {
            "city": "Bamberg", 
            "name": "Einwohnermeldeamt Bamberg", 
            "zipcode": "96047", 
            "state": "Bayern", 
            "street": "Maximiliansplatz 3", 
            "lat": "49.89471", 
            "lng": "10.88998"
        }
    }, 
    {
        "pk": 390, 
        "model": "api.registrationoffice", 
        "fields": {
            "city": "Bammental", 
            "name": "Einwohnermeldeamt Bammental", 
            "zipcode": "69245", 
            "state": "Baden-W\u00fcrttemberg", 
            "street": "Hauptsra\u00dfe 71", 
            "lat": "49.3558039", 
            "lng": "8.7762776"
        }
    }, 
    {
        "pk": 1346, 
        "model": "api.registrationoffice", 
        "fields": {
            "city": "Barntrup", 
            "name": "Einwohnermeldeamt Barntrup", 
            "zipcode": "32683", 
            "state": "Nordrhein-Westfalen", 
            "street": "Mittelstra\u00dfe 32", 
            "lat": "51.99074", 
            "lng": "9.11137"
        }
    }, 
    {
        "pk": 322, 
        "model": "api.registrationoffice", 
        "fields": {
            "city": "Barsinghausen", 
            "name": "Einwohnermeldeamt Barsinghausen", 
            "zipcode": "30890", 
            "state": "Niedersachsen", 
            "street": "Deisterplatz 2", 
            "lat": "52.3046782", 
            "lng": "9.4663494"
        }
    }, 
    {
        "pk": 990, 
        "model": "api.registrationoffice", 
        "fields": {
            "city": "Baunatal", 
            "name": "Einwohnermeldeamt Baunatal", 
            "zipcode": "34225", 
            "state": "Hessen", 
            "street": "Marktplatz 14", 
            "lat": "51.25498", 
            "lng": "9.41334"
        }
    }, 
    {
        "pk": 108, 
        "model": "api.registrationoffice", 
        "fields": {
            "city": "Bautzen", 
            "name": "Einwohnermeldeamt Bautzen", 
            "zipcode": "02625", 
            "state": "Sachsen", 
            "street": "Innere Lauenstra\u00dfe 1", 
            "lat": "51.1809", 
            "lng": "14.42369"
        }
    }, 
    {
        "pk": 451, 
        "model": "api.registrationoffice", 
        "fields": {
            "city": "Bayreuth", 
            "name": "Einwohnermeldeamt Bayreuth", 
            "zipcode": "95444", 
            "state": "Bayern", 
            "street": "Luitpoldplatz 13", 
            "lat": "49.9471035", 
            "lng": "11.5757722"
        }
    }, 
    {
        "pk": 781, 
        "model": "api.registrationoffice", 
        "fields": {
            "city": "Beckum", 
            "name": "Einwohnermeldeamt Beckum", 
            "zipcode": "59269", 
            "state": "Nordrhein-Westfalen", 
            "street": "Weststra\u00dfe 46", 
            "lat": "51.75531", 
            "lng": "8.03542"
        }
    }, 
    {
        "pk": 670, 
        "model": "api.registrationoffice", 
        "fields": {
            "city": "Bedburg", 
            "name": "Einwohnermeldeamt Bedburg", 
            "zipcode": "50181", 
            "state": "Nordrhein-Westfalen", 
            "street": "Friedrich-Wilhelm-Stra\u00dfe 43", 
            "lat": "50.99708", 
            "lng": "6.57671"
        }
    }, 
    {
        "pk": 128, 
        "model": "api.registrationoffice", 
        "fields": {
            "city": "Bedburg-Hau", 
            "name": "Einwohnermeldeamt Bedburg-Hau", 
            "zipcode": "47551", 
            "state": "Nordrhein-Westfalen", 
            "street": "Rathausplatz 1", 
            "lat": "51.76258", 
            "lng": "6.18803"
        }
    }, 
    {
        "pk": 1054, 
        "model": "api.registrationoffice", 
        "fields": {
            "city": "Beelen", 
            "name": "Einwohnermeldeamt Beelen", 
            "zipcode": "48361", 
            "state": "Nordrhein-Westfalen", 
            "street": "Warendorfer Str. 9", 
            "lat": "51.92942", 
            "lng": "8.11991"
        }
    }, 
    {
        "pk": 1004, 
        "model": "api.registrationoffice", 
        "fields": {
            "city": "Beilstein", 
            "name": "Einwohnermeldeamt Beilstein", 
            "zipcode": "71715", 
            "state": "Baden-W\u00fcrttemberg", 
            "street": "Hauptsra\u00dfe 19", 
            "lat": "49.0408886", 
            "lng": "9.3144841"
        }
    }, 
    {
        "pk": 978, 
        "model": "api.registrationoffice", 
        "fields": {
            "city": "Bendorf", 
            "name": "Einwohnermeldeamt Bendorf", 
            "zipcode": "56170", 
            "state": "Rheinland-Pfalz", 
            "street": "Im Stadtpark 1-2", 
            "lat": "50.42513", 
            "lng": "7.57504"
        }
    }, 
    {
        "pk": 176, 
        "model": "api.registrationoffice", 
        "fields": {
            "city": "Benningen", 
            "name": "Einwohnermeldeamt Benningen", 
            "zipcode": "71726", 
            "state": "Baden-W\u00fcrttemberg", 
            "street": "Studionstra\u00dfe 10", 
            "lat": "48.9442674", 
            "lng": "9.2442313"
        }
    }, 
    {
        "pk": 457, 
        "model": "api.registrationoffice", 
        "fields": {
            "city": "Bensheim", 
            "name": "Einwohnermeldeamt Bensheim", 
            "zipcode": "64625", 
            "state": "Hessen", 
            "street": "Hauptstr. 39", 
            "lat": "49.68045", 
            "lng": "8.62197"
        }
    }, 
    {
        "pk": 355, 
        "model": "api.registrationoffice", 
        "fields": {
            "city": "Bergheim", 
            "name": "Einwohnermeldeamt Bergheim", 
            "zipcode": "50126", 
            "state": "Nordrhein-Westfalen", 
            "street": "Bethlehemer Str. 9 - 11", 
            "lat": "50.9545694", 
            "lng": "6.642056"
        }
    }, 
    {
        "pk": 181, 
        "model": "api.registrationoffice", 
        "fields": {
            "city": "Bergisch Gladbach", 
            "name": "Einwohnermeldeamt Bergisch Gladbach Stadtmitte", 
            "zipcode": "51465", 
            "state": "Nordrhein-Westfalen", 
            "street": "Konrad-Adenauer-Platz 9", 
            "lat": "50.9903584", 
            "lng": "7.1295981"
        }
    }, 
    {
        "pk": 182, 
        "model": "api.registrationoffice", 
        "fields": {
            "city": "Bergisch Gladbach", 
            "name": "Einwohnermeldeamt Bergisch Gladbach Bensberg", 
            "zipcode": "51429", 
            "state": "Nordrhein-Westfalen", 
            "street": "Schlo\u00dfstra\u00dfe 82", 
            "lat": "50.9639068", 
            "lng": "7.1631075"
        }
    }, 
    {
        "pk": 183, 
        "model": "api.registrationoffice", 
        "fields": {
            "city": "Bergisch Gladbach", 
            "name": "Einwohnermeldeamt Bergisch Gladbach Hand", 
            "zipcode": "51469", 
            "state": "Nordrhein-Westfalen", 
            "street": "Dellbr\u00fccker Stra\u00dfe 48", 
            "lat": "50.9897042", 
            "lng": "7.0891804"
        }
    }, 
    {
        "pk": 184, 
        "model": "api.registrationoffice", 
        "fields": {
            "city": "Bergisch Gladbach", 
            "name": "Einwohnermeldeamt Bergisch Gladbach Herkenrath", 
            "zipcode": "51429", 
            "state": "Nordrhein-Westfalen", 
            "street": "Ball 12", 
            "lat": "50.98719", 
            "lng": "7.19108"
        }
    }, 
    {
        "pk": 185, 
        "model": "api.registrationoffice", 
        "fields": {
            "city": "Bergisch Gladbach", 
            "name": "Einwohnermeldeamt Bergisch Gladbach Paffrath", 
            "zipcode": "51469", 
            "state": "Nordrhein-Westfalen", 
            "street": "Paffrather Stra\u00dfe 316", 
            "lat": "50.99915", 
            "lng": "7.09986"
        }
    }, 
    {
        "pk": 186, 
        "model": "api.registrationoffice", 
        "fields": {
            "city": "Bergisch Gladbach", 
            "name": "Einwohnermeldeamt Bergisch Gladbach Refrath", 
            "zipcode": "51427", 
            "state": "Nordrhein-Westfalen", 
            "street": "Siebenmorgen 23", 
            "lat": "50.95669", 
            "lng": "7.11685"
        }
    }, 
    {
        "pk": 187, 
        "model": "api.registrationoffice", 
        "fields": {
            "city": "Bergisch Gladbach", 
            "name": "Einwohnermeldeamt Bergisch Gladbach Schildgen", 
            "zipcode": "51467", 
            "state": "Nordrhein-Westfalen", 
            "street": "Altenberger-Dom-Stra\u00dfe 128", 
            "lat": "51.014936", 
            "lng": "7.0802448"
        }
    }, 
    {
        "pk": 1685, 
        "model": "api.registrationoffice", 
        "fields": {
            "city": "Bergkamen", 
            "name": "Einwohnermeldeamt Bergkamen", 
            "zipcode": "59192", 
            "state": "Nordrhein-Westfalen", 
            "street": "Rathausplatz 1", 
            "lat": "51.6154687", 
            "lng": "7.6312904"
        }
    }, 
    {
        "pk": 1407, 
        "model": "api.registrationoffice", 
        "fields": {
            "city": "Berglen", 
            "name": "Einwohnermeldeamt Berglen", 
            "zipcode": "73663", 
            "state": "Baden-W\u00fcrttemberg", 
            "street": "Beethovenstra\u00dfe 14-20", 
            "lat": "48.8605816", 
            "lng": "9.4687617"
        }
    }, 
    {
        "pk": 492, 
        "model": "api.registrationoffice", 
        "fields": {
            "city": "Bergneustadt", 
            "name": "Einwohnermeldeamt Bergneustadt", 
            "zipcode": "51702", 
            "state": "Nordrhein-Westfalen", 
            "street": "K\u00f6lner Str. 256", 
            "lat": "51.0203653", 
            "lng": "7.6530692"
        }
    }, 
    {
        "pk": 1629, 
        "model": "api.registrationoffice", 
        "fields": {
            "city": "Berlin", 
            "name": "Einwohnermeldeamt Berlin Mitte: Rathaus Mitte", 
            "zipcode": "10178", 
            "state": "Berlin", 
            "street": "Karl-Marx-Allee 31", 
            "lat": "52.5210357", 
            "lng": "13.4231365"
        }
    }, 
    {
        "pk": 1630, 
        "model": "api.registrationoffice", 
        "fields": {
            "city": "Berlin", 
            "name": "Einwohnermeldeamt Berlin Charlottenburg-Wilmersdorf: Au\u00dfenstelle Halemweg", 
            "zipcode": "13627", 
            "state": "Berlin", 
            "street": "Halemweg 18", 
            "lat": "52.5376937", 
            "lng": "13.2869536"
        }
    }, 
    {
        "pk": 1631, 
        "model": "api.registrationoffice", 
        "fields": {
            "city": "Berlin", 
            "name": "Einwohnermeldeamt Berlin Charlottenburg-Wilmersdorf: Heerstr.", 
            "zipcode": "14052", 
            "state": "Berlin", 
            "street": "Heerstra\u00dfe 12", 
            "lat": "52.5093744", 
            "lng": "13.2680167"
        }
    }, 
    {
        "pk": 1632, 
        "model": "api.registrationoffice", 
        "fields": {
            "city": "Berlin", 
            "name": "Einwohnermeldeamt Berlin Charlottenburg-Wilmersdorf: Hohenzollerdamm", 
            "zipcode": "10713", 
            "state": "Berlin", 
            "street": "Hohenzollerndamm 177", 
            "lat": "52.48909", 
            "lng": "13.31146"
        }
    }, 
    {
        "pk": 1633, 
        "model": "api.registrationoffice", 
        "fields": {
            "city": "Berlin", 
            "name": "Einwohnermeldeamt Berlin Charlottenburg-Wilmersdorf: Rathaus", 
            "zipcode": "10585", 
            "state": "Berlin", 
            "street": "Otto-Suhr-Allee 100", 
            "lat": "52.517122", 
            "lng": "13.30807"
        }
    }, 
    {
        "pk": 1634, 
        "model": "api.registrationoffice", 
        "fields": {
            "city": "Berlin", 
            "name": "Einwohnermeldeamt Berlin Friedrichshain-Kreuzberg: Frankfurter Allee", 
            "zipcode": "10247", 
            "state": "Berlin", 
            "street": "Frankfurter Allee 35/37", 
            "lat": "52.51529", 
            "lng": "13.46162"
        }
    }, 
    {
        "pk": 1635, 
        "model": "api.registrationoffice", 
        "fields": {
            "city": "Berlin", 
            "name": "Einwohnermeldeamt Berlin Friedrichshain-Kreuzberg: Schlesische Str.", 
            "zipcode": "10997", 
            "state": "Berlin", 
            "street": "Schlesische Str. 27 A", 
            "lat": "52.49837", 
            "lng": "13.44767"
        }
    }, 
    {
        "pk": 1636, 
        "model": "api.registrationoffice", 
        "fields": {
            "city": "Berlin", 
            "name": "Einwohnermeldeamt Berlin Friedrichshain-Kreuzberg: Yorckstr.", 
            "zipcode": "10965", 
            "state": "Berlin", 
            "street": "Yorckstr. 4-11", 
            "lat": "52.493452", 
            "lng": "13.38584"
        }
    }, 
    {
        "pk": 1637, 
        "model": "api.registrationoffice", 
        "fields": {
            "city": "Berlin", 
            "name": "Einwohnermeldeamt Berlin Lichtenberg: Egon-Erwin-Kisch-Str.", 
            "zipcode": "13059", 
            "state": "Berlin", 
            "street": "Egon-Erwin-Kisch-Str. 106", 
            "lat": "52.5677609", 
            "lng": "13.513802"
        }
    }, 
    {
        "pk": 1638, 
        "model": "api.registrationoffice", 
        "fields": {
            "city": "Berlin", 
            "name": "Einwohnermeldeamt Berlin Lichtenberg: Gro\u00dfe-Leege-Str.", 
            "zipcode": "13055", 
            "state": "Berlin", 
            "street": "Gro\u00dfe-Leege-Str. 103", 
            "lat": "52.54508", 
            "lng": "13.49982"
        }
    }, 
    {
        "pk": 1639, 
        "model": "api.registrationoffice", 
        "fields": {
            "city": "Berlin", 
            "name": "Einwohnermeldeamt Berlin Lichtenberg: Mobiles B\u00fcrgeramt Bibliothek \"Anton-Saefkow\"", 
            "zipcode": "10367", 
            "state": "Berlin", 
            "street": "M\u00f6llendorffstr. 6", 
            "lat": "52.515925", 
            "lng": "13.4793307"
        }
    }, 
    {
        "pk": 1640, 
        "model": "api.registrationoffice", 
        "fields": {
            "city": "Berlin", 
            "name": "Einwohnermeldeamt Berlin Lichtenberg: Mobiles B\u00fcrgeramt iKARUS Stadtteilzentrum", 
            "zipcode": "10318", 
            "state": "Berlin", 
            "street": "Wandlitzstr. 13", 
            "lat": "52.4812", 
            "lng": "13.52273"
        }
    }, 
    {
        "pk": 1641, 
        "model": "api.registrationoffice", 
        "fields": {
            "city": "Berlin", 
            "name": "Einwohnermeldeamt Berlin Lichtenberg: Mobiles B\u00fcrgeramt Jobcenter", 
            "zipcode": "10365", 
            "state": "Berlin", 
            "street": "Gotlindestr. 93", 
            "lat": "52.5182086", 
            "lng": "13.4883103"
        }
    }, 
    {
        "pk": 1642, 
        "model": "api.registrationoffice", 
        "fields": {
            "city": "Berlin", 
            "name": "Einwohnermeldeamt Berlin Lichtenberg: Mobiles B\u00fcrgeramt KULTschule Friedrichsfelde", 
            "zipcode": "10319", 
            "state": "Berlin", 
            "street": "Sewanstr. 43", 
            "lat": "52.49874", 
            "lng": "13.50216"
        }
    }, 
    {
        "pk": 1643, 
        "model": "api.registrationoffice", 
        "fields": {
            "city": "Berlin", 
            "name": "Einwohnermeldeamt Berlin Lichtenberg: Mobiles B\u00fcrgeramt Vitanas Senioren Centrum Am Obersee", 
            "zipcode": "13055", 
            "state": "Berlin", 
            "street": "Degnerstr. 11", 
            "lat": "52.54674", 
            "lng": "13.49471"
        }
    }, 
    {
        "pk": 1644, 
        "model": "api.registrationoffice", 
        "fields": {
            "city": "Berlin", 
            "name": "Einwohnermeldeamt Berlin Lichtenberg: M\u00f6llendorffstr.", 
            "zipcode": "10367", 
            "state": "Berlin", 
            "street": "M\u00f6llendorffstr. 5", 
            "lat": "52.5155862", 
            "lng": "13.4790515"
        }
    }, 
    {
        "pk": 1645, 
        "model": "api.registrationoffice", 
        "fields": {
            "city": "Berlin", 
            "name": "Einwohnermeldeamt Berlin Lichtenberg: Otto-Schmirgal-Str.", 
            "zipcode": "10319", 
            "state": "Berlin", 
            "street": "Otto-Schmirgal-Str. 1", 
            "lat": "52.4972395", 
            "lng": "13.52206"
        }
    }, 
    {
        "pk": 1646, 
        "model": "api.registrationoffice", 
        "fields": {
            "city": "Berlin", 
            "name": "Einwohnermeldeamt Berlin Marzahn-Hellersdorf: Biesdorf-Center", 
            "zipcode": "12683", 
            "state": "Berlin", 
            "street": "Elsterwerdaer Platz 3", 
            "lat": "52.50497", 
            "lng": "13.56119"
        }
    }, 
    {
        "pk": 1647, 
        "model": "api.registrationoffice", 
        "fields": {
            "city": "Berlin", 
            "name": "Einwohnermeldeamt Berlin Marzahn-Hellersdorf: Helle Mitte", 
            "zipcode": "12627", 
            "state": "Berlin", 
            "street": "Alice-Salomon-Platz 3", 
            "lat": "52.5374165", 
            "lng": "13.6030994"
        }
    }, 
    {
        "pk": 1648, 
        "model": "api.registrationoffice", 
        "fields": {
            "city": "Berlin", 
            "name": "Einwohnermeldeamt Berlin Marzahn-Hellersdorf: Marzahner Promenade", 
            "zipcode": "12679", 
            "state": "Berlin", 
            "street": "Marzahner Promenade 11", 
            "lat": "52.5425148", 
            "lng": "13.5445874"
        }
    }, 
    {
        "pk": 1649, 
        "model": "api.registrationoffice", 
        "fields": {
            "city": "Berlin", 
            "name": "Einwohnermeldeamt Berlin Mitte: Rathaus Tiergarten", 
            "zipcode": "10551", 
            "state": "Berlin", 
            "street": "Mathilde-Jacob-Platz 1", 
            "lat": "52.5268088", 
            "lng": "13.3380227"
        }
    }, 
    {
        "pk": 1650, 
        "model": "api.registrationoffice", 
        "fields": {
            "city": "Berlin", 
            "name": "Einwohnermeldeamt Berlin Mitte: Rathaus Wedding", 
            "zipcode": "13353", 
            "state": "Berlin", 
            "street": "M\u00fcllerstr. 147", 
            "lat": "52.5474769", 
            "lng": "13.3567655"
        }
    }, 
    {
        "pk": 1651, 
        "model": "api.registrationoffice", 
        "fields": {
            "city": "Berlin", 
            "name": "Einwohnermeldeamt Berlin Neuk\u00f6lln: Blaschkoallee", 
            "zipcode": "12359", 
            "state": "Berlin", 
            "street": "Blaschkoallee 32", 
            "lat": "52.452597", 
            "lng": "13.446343"
        }
    }, 
    {
        "pk": 1652, 
        "model": "api.registrationoffice", 
        "fields": {
            "city": "Berlin", 
            "name": "Einwohnermeldeamt Berlin Neuk\u00f6lln: Rathaus", 
            "zipcode": "12043", 
            "state": "Berlin", 
            "street": "Donaustr. 29", 
            "lat": "52.4816326", 
            "lng": "13.4367265"
        }
    }, 
    {
        "pk": 1653, 
        "model": "api.registrationoffice", 
        "fields": {
            "city": "Berlin", 
            "name": "Einwohnermeldeamt Berlin Neuk\u00f6lln: Sonnenallee", 
            "zipcode": "12045", 
            "state": "Berlin", 
            "street": "Sonnenallee 107", 
            "lat": "52.4817184", 
            "lng": "13.4404782"
        }
    }, 
    {
        "pk": 1654, 
        "model": "api.registrationoffice", 
        "fields": {
            "city": "Berlin", 
            "name": "Einwohnermeldeamt Berlin Neuk\u00f6lln: Zwickauer Damm", 
            "zipcode": "12353", 
            "state": "Berlin", 
            "street": "Zwickauer Damm 52", 
            "lat": "52.4195678", 
            "lng": "13.4793491"
        }
    }, 
    {
        "pk": 1655, 
        "model": "api.registrationoffice", 
        "fields": {
            "city": "Berlin", 
            "name": "Einwohnermeldeamt Berlin Pankow: Karow/Buch", 
            "zipcode": "13125", 
            "state": "Berlin", 
            "street": "Franz-Schmidt-Str. 8-10", 
            "lat": "52.63264", 
            "lng": "13.49562"
        }
    }, 
    {
        "pk": 1656, 
        "model": "api.registrationoffice", 
        "fields": {
            "city": "Berlin", 
            "name": "Einwohnermeldeamt Berlin Pankow: Pankow", 
            "zipcode": "13187", 
            "state": "Berlin", 
            "street": "Breite Str. 24a-26", 
            "lat": "52.5691323", 
            "lng": "13.4022535"
        }
    }, 
    {
        "pk": 1657, 
        "model": "api.registrationoffice", 
        "fields": {
            "city": "Berlin", 
            "name": "Einwohnermeldeamt Berlin Pankow: Prenzlauer Berg", 
            "zipcode": "10405", 
            "state": "Berlin", 
            "street": "Fr\u00f6belstr. 17", 
            "lat": "52.540717", 
            "lng": "13.4278142"
        }
    }, 
    {
        "pk": 1658, 
        "model": "api.registrationoffice", 
        "fields": {
            "city": "Berlin", 
            "name": "Einwohnermeldeamt Berlin Pankow: Wei\u00dfensee", 
            "zipcode": "13088", 
            "state": "Berlin", 
            "street": "Berliner Allee 252-260", 
            "lat": "52.5601155", 
            "lng": "13.4704936"
        }
    }, 
    {
        "pk": 1659, 
        "model": "api.registrationoffice", 
        "fields": {
            "city": "Berlin", 
            "name": "Einwohnermeldeamt Berlin Reinickendorf: Heiligensee", 
            "zipcode": "13503", 
            "state": "Berlin", 
            "street": "Ruppiner Chaussee 268", 
            "lat": "52.61576", 
            "lng": "13.24508"
        }
    }, 
    {
        "pk": 1660, 
        "model": "api.registrationoffice", 
        "fields": {
            "city": "Berlin", 
            "name": "Einwohnermeldeamt Berlin Reinickendorf: M\u00e4rkisches Viertel", 
            "zipcode": "13435", 
            "state": "Berlin", 
            "street": "Wilhelmsruher Damm 142c", 
            "lat": "52.59764", 
            "lng": "13.35225"
        }
    }, 
    {
        "pk": 1661, 
        "model": "api.registrationoffice", 
        "fields": {
            "city": "Berlin", 
            "name": "Einwohnermeldeamt Berlin Reinickendorf: Mobiles B\u00fcrgeramt Frohnau", 
            "zipcode": "13465", 
            "state": "Berlin", 
            "street": "Welfenallee 37-43", 
            "lat": "52.62815", 
            "lng": "13.28714"
        }
    }, 
    {
        "pk": 1662, 
        "model": "api.registrationoffice", 
        "fields": {
            "city": "Berlin", 
            "name": "Einwohnermeldeamt Berlin Reinickendorf: Mobiles B\u00fcrgeramt MV", 
            "zipcode": "13435", 
            "state": "Berlin", 
            "street": "Senftenberger Ring 51", 
            "lat": "52.6048518", 
            "lng": "13.3561833"
        }
    }, 
    {
        "pk": 1663, 
        "model": "api.registrationoffice", 
        "fields": {
            "city": "Berlin", 
            "name": "Einwohnermeldeamt Berlin Reinickendorf: Mobiles B\u00fcrgeramt Ost", 
            "zipcode": "13405", 
            "state": "Berlin", 
            "street": "Stargardtstr. 12-14", 
            "lat": "52.56633", 
            "lng": "13.35971"
        }
    }, 
    {
        "pk": 1664, 
        "model": "api.registrationoffice", 
        "fields": {
            "city": "Berlin", 
            "name": "Einwohnermeldeamt Berlin Reinickendorf: Mobiles B\u00fcrgeramt Tegel S\u00fcd", 
            "zipcode": "13507", 
            "state": "Berlin", 
            "street": "Neheimer Str. 10-12", 
            "lat": "52.57748", 
            "lng": "13.27751"
        }
    }, 
    {
        "pk": 1665, 
        "model": "api.registrationoffice", 
        "fields": {
            "city": "Berlin", 
            "name": "Einwohnermeldeamt Berlin Reinickendorf: Ost", 
            "zipcode": "13407", 
            "state": "Berlin", 
            "street": "Teichstr. 65", 
            "lat": "52.57113", 
            "lng": "13.34767"
        }
    }, 
    {
        "pk": 1666, 
        "model": "api.registrationoffice", 
        "fields": {
            "city": "Berlin", 
            "name": "Einwohnermeldeamt Berlin Reinickendorf: Rathaus", 
            "zipcode": "13437", 
            "state": "Berlin", 
            "street": "Eichborndamm 215-239", 
            "lat": "52.5888759", 
            "lng": "13.3249891"
        }
    }, 
    {
        "pk": 1667, 
        "model": "api.registrationoffice", 
        "fields": {
            "city": "Berlin", 
            "name": "Einwohnermeldeamt Berlin Reinickendorf: Tegel", 
            "zipcode": "13507", 
            "state": "Berlin", 
            "street": "Berliner Str. 35", 
            "lat": "52.58239", 
            "lng": "13.28904"
        }
    }, 
    {
        "pk": 1668, 
        "model": "api.registrationoffice", 
        "fields": {
            "city": "Berlin", 
            "name": "Einwohnermeldeamt Berlin Spandau: Kladow-Center", 
            "zipcode": "14089", 
            "state": "Berlin", 
            "street": "Kladower Damm 364", 
            "lat": "52.4554", 
            "lng": "13.14522"
        }
    }, 
    {
        "pk": 1669, 
        "model": "api.registrationoffice", 
        "fields": {
            "city": "Berlin", 
            "name": "Einwohnermeldeamt Berlin Spandau: Rathaus", 
            "zipcode": "13597", 
            "state": "Berlin", 
            "street": "Carl-Schurz-Str. 2-6", 
            "lat": "52.53568", 
            "lng": "13.20138"
        }
    }, 
    {
        "pk": 1670, 
        "model": "api.registrationoffice", 
        "fields": {
            "city": "Berlin", 
            "name": "Einwohnermeldeamt Berlin Spandau: Wasserstadt", 
            "zipcode": "13587", 
            "state": "Berlin", 
            "street": "Hugo-Cassirer-Str. 48", 
            "lat": "52.5601", 
            "lng": "13.21917"
        }
    }, 
    {
        "pk": 1671, 
        "model": "api.registrationoffice", 
        "fields": {
            "city": "Berlin", 
            "name": "Einwohnermeldeamt Berlin Steglitz-Zehlendorf: Lankwitz", 
            "zipcode": "12249", 
            "state": "Berlin", 
            "street": "Gallwitzallee 87", 
            "lat": "52.4278984", 
            "lng": "13.3475704"
        }
    }, 
    {
        "pk": 1672, 
        "model": "api.registrationoffice", 
        "fields": {
            "city": "Berlin", 
            "name": "Einwohnermeldeamt Berlin Steglitz-Zehlendorf: Steglitz", 
            "zipcode": "12163", 
            "state": "Berlin", 
            "street": "Schlo\u00dfstr. 37", 
            "lat": "52.4571989", 
            "lng": "13.320752"
        }
    }, 
    {
        "pk": 1673, 
        "model": "api.registrationoffice", 
        "fields": {
            "city": "Berlin", 
            "name": "Einwohnermeldeamt Berlin Steglitz-Zehlendorf: Zehlendorf", 
            "zipcode": "14163", 
            "state": "Berlin", 
            "street": "Kirchstra\u00dfe 1/3", 
            "lat": "52.4333418", 
            "lng": "13.2579714"
        }
    }, 
    {
        "pk": 1674, 
        "model": "api.registrationoffice", 
        "fields": {
            "city": "Berlin", 
            "name": "Einwohnermeldeamt Berlin Tempelhof-Sch\u00f6neberg: Lichtenrade", 
            "zipcode": "12307", 
            "state": "Berlin", 
            "street": "Briesingstr.6", 
            "lat": "52.3868211", 
            "lng": "13.3967294"
        }
    }, 
    {
        "pk": 1675, 
        "model": "api.registrationoffice", 
        "fields": {
            "city": "Berlin", 
            "name": "Einwohnermeldeamt Berlin Tempelhof-Sch\u00f6neberg: Sch\u00f6neberg", 
            "zipcode": "10825", 
            "state": "Berlin", 
            "street": "John-F.-Kennedy-Platz", 
            "lat": "52.4854788", 
            "lng": "13.3449519"
        }
    }, 
    {
        "pk": 1676, 
        "model": "api.registrationoffice", 
        "fields": {
            "city": "Berlin", 
            "name": "Einwohnermeldeamt Berlin Tempelhof-Sch\u00f6neberg: Tempelhof", 
            "zipcode": "12099", 
            "state": "Berlin", 
            "street": "Tempelhofer Damm 165", 
            "lat": "52.46308", 
            "lng": "13.38565"
        }
    }, 
    {
        "pk": 1677, 
        "model": "api.registrationoffice", 
        "fields": {
            "city": "Berlin", 
            "name": "Einwohnermeldeamt Berlin Treptow-K\u00f6penick: Michael-Br\u00fcckner-Str.", 
            "zipcode": "12439", 
            "state": "Berlin", 
            "street": "Michael-Br\u00fcckner-Str. 1", 
            "lat": "52.4561215", 
            "lng": "13.5106063"
        }
    }, 
    {
        "pk": 1678, 
        "model": "api.registrationoffice", 
        "fields": {
            "city": "Berlin", 
            "name": "Einwohnermeldeamt Berlin Treptow-K\u00f6penick: Rathaus K\u00f6penick", 
            "zipcode": "12555", 
            "state": "Berlin", 
            "street": "Alt-K\u00f6penick 21", 
            "lat": "52.4458235", 
            "lng": "13.5748068"
        }
    }, 
    {
        "pk": 1679, 
        "model": "api.registrationoffice", 
        "fields": {
            "city": "Berlin", 
            "name": "Einwohnermeldeamt Berlin Zentrale Einwohnerangelegenheiten", 
            "zipcode": "10969", 
            "state": "Berlin", 
            "street": "Friedrichstr. 219", 
            "lat": "52.504657", 
            "lng": "13.390896"
        }
    }, 
    {
        "pk": 803, 
        "model": "api.registrationoffice", 
        "fields": {
            "city": "Bernau", 
            "name": "Einwohnermeldeamt Bernau", 
            "zipcode": "16321", 
            "state": "Brandenburg", 
            "street": "B\u00fcrgermeisterstra\u00dfe 25", 
            "lat": "52.67936", 
            "lng": "13.58663"
        }
    }, 
    {
        "pk": 1033, 
        "model": "api.registrationoffice", 
        "fields": {
            "city": "Bernburg", 
            "name": "Einwohnermeldeamt Aderstedt", 
            "zipcode": "06406", 
            "state": "Sachsen-Anhalt", 
            "street": "Schlossstra\u00dfe 11", 
            "lat": "51.7939578", 
            "lng": "11.7360251"
        }
    }, 
    {
        "pk": 665, 
        "model": "api.registrationoffice", 
        "fields": {
            "city": "Beselich", 
            "name": "Einwohnermeldeamt Beselich", 
            "zipcode": "65614", 
            "state": "Hessen", 
            "street": "Steinbacher Stra\u00dfe 10", 
            "lat": "50.45853", 
            "lng": "8.12281"
        }
    }, 
    {
        "pk": 86, 
        "model": "api.registrationoffice", 
        "fields": {
            "city": "Bestwig", 
            "name": "Einwohnermeldeamt Bestwig", 
            "zipcode": "59909", 
            "state": "Nordrhein-Westfalen", 
            "street": "Rathausplatz 1", 
            "lat": "51.36087", 
            "lng": "8.40147"
        }
    }, 
    {
        "pk": 1095, 
        "model": "api.registrationoffice", 
        "fields": {
            "city": "Beverungen", 
            "name": "Einwohnermeldeamt Beverungen", 
            "zipcode": "37688", 
            "state": "Nordrhein-Westfalen", 
            "street": "Weserstra\u00dfe 12", 
            "lat": "51.66365", 
            "lng": "9.3747"
        }
    }, 
    {
        "pk": 1217, 
        "model": "api.registrationoffice", 
        "fields": {
            "city": "Bexbach", 
            "name": "Einwohnermeldeamt Bexbach", 
            "zipcode": "66450", 
            "state": "Saarland", 
            "street": "Aloys-Nesseler-Platz 5", 
            "lat": "49.3475882", 
            "lng": "7.2558024"
        }
    }, 
    {
        "pk": 721, 
        "model": "api.registrationoffice", 
        "fields": {
            "city": "Biberach", 
            "name": "Einwohnermeldeamt Biberach", 
            "zipcode": "88400", 
            "state": "Baden-W\u00fcrttemberg", 
            "street": "Hindenburgstra\u00dfe 29", 
            "lat": "48.0966853", 
            "lng": "9.7897736"
        }
    }, 
    {
        "pk": 583, 
        "model": "api.registrationoffice", 
        "fields": {
            "city": "Bielefeld", 
            "name": "Einwohnermeldeamt Bielefeld Mitte", 
            "zipcode": "33602", 
            "state": "Nordrhein-Westfalen", 
            "street": "Niederwall 23", 
            "lat": "52.0218589", 
            "lng": "8.5344819"
        }
    }, 
    {
        "pk": 584, 
        "model": "api.registrationoffice", 
        "fields": {
            "city": "Bielefeld", 
            "name": "Einwohnermeldeamt Bielefeld Brackwede", 
            "zipcode": "33647", 
            "state": "Nordrhein-Westfalen", 
            "street": "Germanenstr. 22", 
            "lat": "51.99074", 
            "lng": "8.50656"
        }
    }, 
    {
        "pk": 585, 
        "model": "api.registrationoffice", 
        "fields": {
            "city": "Bielefeld", 
            "name": "Einwohnermeldeamt Bielefeld Brake", 
            "zipcode": "33729", 
            "state": "Nordrhein-Westfalen", 
            "street": "Wefelshof 9", 
            "lat": "52.07153", 
            "lng": "8.60279"
        }
    }, 
    {
        "pk": 586, 
        "model": "api.registrationoffice", 
        "fields": {
            "city": "Bielefeld", 
            "name": "Einwohnermeldeamt Bielefeld Dornberg", 
            "zipcode": "33619", 
            "state": "Nordrhein-Westfalen", 
            "street": "Wertherstr. 436", 
            "lat": "52.0486817", 
            "lng": "8.4561591"
        }
    }, 
    {
        "pk": 587, 
        "model": "api.registrationoffice", 
        "fields": {
            "city": "Bielefeld", 
            "name": "Einwohnermeldeamt Bielefeld Gadderbaum", 
            "zipcode": "33617", 
            "state": "Nordrhein-Westfalen", 
            "street": "Nazarethweg 7", 
            "lat": "52.0105802", 
            "lng": "8.5244925"
        }
    }, 
    {
        "pk": 588, 
        "model": "api.registrationoffice", 
        "fields": {
            "city": "Bielefeld", 
            "name": "Einwohnermeldeamt Bielefeld Heepen", 
            "zipcode": "33719", 
            "state": "Nordrhein-Westfalen", 
            "street": "Salzufler Str. 13", 
            "lat": "52.03185", 
            "lng": "8.60562"
        }
    }, 
    {
        "pk": 589, 
        "model": "api.registrationoffice", 
        "fields": {
            "city": "Bielefeld", 
            "name": "Einwohnermeldeamt Bielefeld Hillegossen", 
            "zipcode": "33699", 
            "state": "Nordrhein-Westfalen", 
            "street": "Detmolder Str. 617", 
            "lat": "51.99295", 
            "lng": "8.61152"
        }
    }, 
    {
        "pk": 590, 
        "model": "api.registrationoffice", 
        "fields": {
            "city": "Bielefeld", 
            "name": "Einwohnermeldeamt Bielefeld J\u00f6llenbeck", 
            "zipcode": "33739", 
            "state": "Nordrhein-Westfalen", 
            "street": "Amtsstr. 13", 
            "lat": "52.09524", 
            "lng": "8.51555"
        }
    }, 
    {
        "pk": 591, 
        "model": "api.registrationoffice", 
        "fields": {
            "city": "Bielefeld", 
            "name": "Einwohnermeldeamt Bielefeld Schildesche", 
            "zipcode": "33611", 
            "state": "Nordrhein-Westfalen", 
            "street": "Margaretenweg 29", 
            "lat": "52.05417", 
            "lng": "8.54646"
        }
    }, 
    {
        "pk": 592, 
        "model": "api.registrationoffice", 
        "fields": {
            "city": "Bielefeld", 
            "name": "Einwohnermeldeamt Bielefeld Senne", 
            "zipcode": "33659", 
            "state": "Nordrhein-Westfalen", 
            "street": "Windelsbleicher Str. 242", 
            "lat": "51.9581269", 
            "lng": "8.5206978"
        }
    }, 
    {
        "pk": 593, 
        "model": "api.registrationoffice", 
        "fields": {
            "city": "Bielefeld", 
            "name": "Einwohnermeldeamt Bielefeld Sennestadt", 
            "zipcode": "33689", 
            "state": "Nordrhein-Westfalen", 
            "street": "Lindemann-Platz 3", 
            "lat": "51.9453001", 
            "lng": "8.5836055"
        }
    }, 
    {
        "pk": 1489, 
        "model": "api.registrationoffice", 
        "fields": {
            "city": "Bietigheim-Bissingen", 
            "name": "Einwohnermeldeamt Bietigheim-Bissingen Bietigheim", 
            "zipcode": "74321", 
            "state": "Baden-W\u00fcrttemberg", 
            "street": "Farbstra\u00dfe 19", 
            "lat": "48.95818", 
            "lng": "9.12356"
        }
    }, 
    {
        "pk": 1490, 
        "model": "api.registrationoffice", 
        "fields": {
            "city": "Bietigheim-Bissingen", 
            "name": "Einwohnermeldeamt Bietigheim-Bissingen Bissingen", 
            "zipcode": "74321", 
            "state": "Baden-W\u00fcrttemberg", 
            "street": "Bahnhofstra\u00dfe 1", 
            "lat": "48.94747", 
            "lng": "9.09986"
        }
    }, 
    {
        "pk": 1052, 
        "model": "api.registrationoffice", 
        "fields": {
            "city": "Billerbeck", 
            "name": "Einwohnermeldeamt Billerbeck", 
            "zipcode": "48727", 
            "state": "Nordrhein-Westfalen", 
            "street": "Markt 1", 
            "lat": "51.9771339", 
            "lng": "7.291867"
        }
    }, 
    {
        "pk": 306, 
        "model": "api.registrationoffice", 
        "fields": {
            "city": "Bingen", 
            "name": "Einwohnermeldeamt Bingen", 
            "zipcode": "55411", 
            "state": "Rheinland-Pfalz", 
            "street": "Am Burggraben 7", 
            "lat": "49.9676794", 
            "lng": "7.8970901"
        }
    }, 
    {
        "pk": 324, 
        "model": "api.registrationoffice", 
        "fields": {
            "city": "Bitterfeld-Wolfen", 
            "name": "Einwohnermeldeamt Bitterfeld-Wolfen", 
            "zipcode": "06749", 
            "state": "Sachsen-Anhalt", 
            "street": "Markt 7", 
            "lat": "51.6237274", 
            "lng": "12.3289242"
        }
    }, 
    {
        "pk": 562, 
        "model": "api.registrationoffice", 
        "fields": {
            "city": "Blankenfelde", 
            "name": "Einwohnermeldeamt Blankenfelde", 
            "zipcode": "15827", 
            "state": "Brandenburg", 
            "street": "Karl-Marx-Stra\u00dfe 4", 
            "lat": "52.3366263", 
            "lng": "13.4139002"
        }
    }, 
    {
        "pk": 846, 
        "model": "api.registrationoffice", 
        "fields": {
            "city": "Blankenheim", 
            "name": "Einwohnermeldeamt Blankenheim", 
            "zipcode": "53945", 
            "state": "Nordrhein-Westfalen", 
            "street": "Ahrstra\u00dfe 55 - 57", 
            "lat": "50.43734", 
            "lng": "6.6497"
        }
    }, 
    {
        "pk": 933, 
        "model": "api.registrationoffice", 
        "fields": {
            "city": "Blieskastel", 
            "name": "Einwohnermeldeamt Blieskastel", 
            "zipcode": "66440", 
            "state": "Saarland", 
            "street": "Zweibr\u00fccker Str. 1", 
            "lat": "49.2365011", 
            "lng": "7.2623176"
        }
    }, 
    {
        "pk": 604, 
        "model": "api.registrationoffice", 
        "fields": {
            "city": "Blomberg", 
            "name": "Einwohnermeldeamt Blomberg", 
            "zipcode": "32825", 
            "state": "Nordrhein-Westfalen", 
            "street": "Am Martiniturm 1", 
            "lat": "51.9412112", 
            "lng": "9.0985749"
        }
    }, 
    {
        "pk": 1434, 
        "model": "api.registrationoffice", 
        "fields": {
            "city": "Bocholt", 
            "name": "Einwohnermeldeamt Bocholt", 
            "zipcode": "46395", 
            "state": "Nordrhein-Westfalen", 
            "street": "Berliner Platz 1", 
            "lat": "51.83714", 
            "lng": "6.61104"
        }
    }, 
    {
        "pk": 564, 
        "model": "api.registrationoffice", 
        "fields": {
            "city": "Bochum", 
            "name": "Einwohnermeldeamt Bochum Rathaus", 
            "zipcode": "44787", 
            "state": "Nordrhein-Westfalen", 
            "street": "Willy-Brandt-Platz 2", 
            "lat": "51.48258", 
            "lng": "7.21447"
        }
    }, 
    {
        "pk": 565, 
        "model": "api.registrationoffice", 
        "fields": {
            "city": "Bochum", 
            "name": "Einwohnermeldeamt Bochum Gerthe", 
            "zipcode": "44805", 
            "state": "Nordrhein-Westfalen", 
            "street": "Heinrichstr. 42", 
            "lat": "51.5162872", 
            "lng": "7.2774741"
        }
    }, 
    {
        "pk": 566, 
        "model": "api.registrationoffice", 
        "fields": {
            "city": "Bochum", 
            "name": "Einwohnermeldeamt Bochum im Strassenverkehrsamt", 
            "zipcode": "44809", 
            "state": "Nordrhein-Westfalen", 
            "street": "Bulksm\u00fchle 17", 
            "lat": "51.500118", 
            "lng": "7.2083115"
        }
    }, 
    {
        "pk": 567, 
        "model": "api.registrationoffice", 
        "fields": {
            "city": "Bochum", 
            "name": "Einwohnermeldeamt Bochum Langendreer", 
            "zipcode": "44892", 
            "state": "Nordrhein-Westfalen", 
            "street": "Carl-von-Ossietzky-Platz 1", 
            "lat": "51.469953", 
            "lng": "7.3147247"
        }
    }, 
    {
        "pk": 568, 
        "model": "api.registrationoffice", 
        "fields": {
            "city": "Bochum", 
            "name": "Einwohnermeldeamt Bochum Querenburg", 
            "zipcode": "44801", 
            "state": "Nordrhein-Westfalen", 
            "street": "Querenburger H\u00f6he 256", 
            "lat": "51.44795", 
            "lng": "7.25759"
        }
    }, 
    {
        "pk": 569, 
        "model": "api.registrationoffice", 
        "fields": {
            "city": "Bochum", 
            "name": "Einwohnermeldeamt Bochum Wattenscheid", 
            "zipcode": "44866", 
            "state": "Nordrhein-Westfalen", 
            "street": "Friedrich-Ebert-Str. 7", 
            "lat": "51.4824252", 
            "lng": "7.1352912"
        }
    }, 
    {
        "pk": 570, 
        "model": "api.registrationoffice", 
        "fields": {
            "city": "Bochum", 
            "name": "Einwohnermeldeamt Bochum Weitmar", 
            "zipcode": "44795", 
            "state": "Nordrhein-Westfalen", 
            "street": "Hattinger Str. 389", 
            "lat": "51.45084", 
            "lng": "7.19333"
        }
    }, 
    {
        "pk": 238, 
        "model": "api.registrationoffice", 
        "fields": {
            "city": "Bonn", 
            "name": "Einwohnermeldeamt Bonn Stadthaus", 
            "zipcode": "53111", 
            "state": "Nordrhein-Westfalen", 
            "street": "Berliner Platz 2", 
            "lat": "50.73689", 
            "lng": "7.09477"
        }
    }, 
    {
        "pk": 239, 
        "model": "api.registrationoffice", 
        "fields": {
            "city": "Bonn", 
            "name": "Einwohnermeldeamt Bonn Bad Godesberg", 
            "zipcode": "53177", 
            "state": "Nordrhein-Westfalen", 
            "street": "Kurf\u00fcrstenallee 2-3", 
            "lat": "50.68043", 
            "lng": "7.15337"
        }
    }, 
    {
        "pk": 240, 
        "model": "api.registrationoffice", 
        "fields": {
            "city": "Bonn", 
            "name": "Einwohnermeldeamt Bonn Hardtberg", 
            "zipcode": "53123", 
            "state": "Nordrhein-Westfalen", 
            "street": "Villemombler Str. 1", 
            "lat": "50.7162757", 
            "lng": "7.0514794"
        }
    }, 
    {
        "pk": 241, 
        "model": "api.registrationoffice", 
        "fields": {
            "city": "Bonn", 
            "name": "Einwohnermeldeamt Bonn Beuel", 
            "zipcode": "53225", 
            "state": "Nordrhein-Westfalen", 
            "street": "Friedrich-Breuer-Str. 65", 
            "lat": "50.73968", 
            "lng": "7.11971"
        }
    }, 
    {
        "pk": 1265, 
        "model": "api.registrationoffice", 
        "fields": {
            "city": "Borchen", 
            "name": "Einwohnermeldeamt Borchen", 
            "zipcode": "33178", 
            "state": "Nordrhein-Westfalen", 
            "street": "Unter der Burg 1", 
            "lat": "51.65727", 
            "lng": "8.72153"
        }
    }, 
    {
        "pk": 1709, 
        "model": "api.registrationoffice", 
        "fields": {
            "city": "Borgentreich", 
            "name": "Einwohnermeldeamt Borgentreich", 
            "zipcode": "34434", 
            "state": "Nordrhein-Westfalen", 
            "street": "Am Rathaus 13", 
            "lat": "51.57316", 
            "lng": "9.24094"
        }
    }, 
    {
        "pk": 88, 
        "model": "api.registrationoffice", 
        "fields": {
            "city": "Borgholzhausen", 
            "name": "Einwohnermeldeamt Borgholzhausen", 
            "zipcode": "33829", 
            "state": "Nordrhein-Westfalen", 
            "street": "Schulstr. 5", 
            "lat": "52.10351", 
            "lng": "8.30371"
        }
    }, 
    {
        "pk": 217, 
        "model": "api.registrationoffice", 
        "fields": {
            "city": "Borken", 
            "name": "Einwohnermeldeamt Borken", 
            "zipcode": "46325", 
            "state": "Nordrhein-Westfalen", 
            "street": "Im Piepershagen 17", 
            "lat": "51.84675", 
            "lng": "6.85707"
        }
    }, 
    {
        "pk": 280, 
        "model": "api.registrationoffice", 
        "fields": {
            "city": "Borken", 
            "name": "Einwohnermeldeamt Borken", 
            "zipcode": "34582", 
            "state": "Hessen", 
            "street": "Am Rathaus 7", 
            "lat": "51.04914", 
            "lng": "9.27908"
        }
    }, 
    {
        "pk": 771, 
        "model": "api.registrationoffice", 
        "fields": {
            "city": "Borna", 
            "name": "Einwohnermeldeamt Borna", 
            "zipcode": "04552", 
            "state": "Sachsen", 
            "street": "Pass- und Meldestelle", 
            "lat": "51.1245977", 
            "lng": "12.4923222"
        }
    }, 
    {
        "pk": 2, 
        "model": "api.registrationoffice", 
        "fields": {
            "city": "Bornheim", 
            "name": "Einwohnermeldeamt Bornheim", 
            "zipcode": "53332", 
            "state": "Nordrhein-Westfalen", 
            "street": "Rathausstra\u00dfe 2", 
            "lat": "50.75747", 
            "lng": "7.00442"
        }
    }, 
    {
        "pk": 873, 
        "model": "api.registrationoffice", 
        "fields": {
            "city": "Bottrop", 
            "name": "Einwohnermeldeamt Bottrop", 
            "zipcode": "46236", 
            "state": "Nordrhein-Westfalen", 
            "street": "Ernst-Wilczok-Platz 1", 
            "lat": "51.5239525", 
            "lng": "6.9250891"
        }
    }, 
    {
        "pk": 1155, 
        "model": "api.registrationoffice", 
        "fields": {
            "city": "Brakel", 
            "name": "Einwohnermeldeamt Brakel", 
            "zipcode": "33034", 
            "state": "Nordrhein-Westfalen", 
            "street": "Am Markt 12", 
            "lat": "51.7167964", 
            "lng": "9.1843992"
        }
    }, 
    {
        "pk": 384, 
        "model": "api.registrationoffice", 
        "fields": {
            "city": "Bramsche", 
            "name": "Einwohnermeldeamt Bramsche", 
            "zipcode": "49565", 
            "state": "Niedersachsen", 
            "street": "Hasestra\u00dfe 11", 
            "lat": "52.40793", 
            "lng": "7.98513"
        }
    }, 
    {
        "pk": 1446, 
        "model": "api.registrationoffice", 
        "fields": {
            "city": "Brandenburg", 
            "name": "Einwohnermeldeamt Brandenburg Gollwitz", 
            "zipcode": "14776", 
            "state": "Brandenburg", 
            "street": "Schlossallee 98", 
            "lat": "52.4214701", 
            "lng": "12.6480193"
        }
    }, 
    {
        "pk": 1447, 
        "model": "api.registrationoffice", 
        "fields": {
            "city": "Brandenburg", 
            "name": "Einwohnermeldeamt Brandenburg G\u00f6ttin", 
            "zipcode": "14776", 
            "state": "Brandenburg", 
            "street": "G\u00f6ttiner Schulstr. 3", 
            "lat": "52.3677", 
            "lng": "12.5507"
        }
    }, 
    {
        "pk": 1448, 
        "model": "api.registrationoffice", 
        "fields": {
            "city": "Brandenburg", 
            "name": "Einwohnermeldeamt Brandenburg Klein Kreutz", 
            "zipcode": "14776", 
            "state": "Brandenburg", 
            "street": "Klein Kreutzer Dorfstr. 31", 
            "lat": "52.434982", 
            "lng": "12.6227972"
        }
    }, 
    {
        "pk": 1449, 
        "model": "api.registrationoffice", 
        "fields": {
            "city": "Brandenburg", 
            "name": "Einwohnermeldeamt Brandenburg Nicolaiplatz 30", 
            "zipcode": "14770", 
            "state": "Brandenburg", 
            "street": "Nicolaiplatz 30", 
            "lat": "52.4112466", 
            "lng": "12.5488192"
        }
    }, 
    {
        "pk": 1450, 
        "model": "api.registrationoffice", 
        "fields": {
            "city": "Brandenburg", 
            "name": "Einwohnermeldeamt Brandenburg Plaue / Kirchm\u00f6ser", 
            "zipcode": "14774", 
            "state": "Brandenburg", 
            "street": "Unter den Platanen 2", 
            "lat": "52.3981408", 
            "lng": "12.411314"
        }
    }, 
    {
        "pk": 1451, 
        "model": "api.registrationoffice", 
        "fields": {
            "city": "Brandenburg", 
            "name": "Einwohnermeldeamt Brandenburg Schmerzke", 
            "zipcode": "14776", 
            "state": "Brandenburg", 
            "street": "Altes Dorf 14", 
            "lat": "52.39022", 
            "lng": "12.58791"
        }
    }, 
    {
        "pk": 1452, 
        "model": "api.registrationoffice", 
        "fields": {
            "city": "Brandenburg", 
            "name": "Einwohnermeldeamt Brandenburg Wilhelmsdorf", 
            "zipcode": "14776", 
            "state": "Brandenburg", 
            "street": "Wilhelmsdorf 6 D", 
            "lat": "52.37331", 
            "lng": "12.50665"
        }
    }, 
    {
        "pk": 1453, 
        "model": "api.registrationoffice", 
        "fields": {
            "city": "Brandenburg", 
            "name": "Einwohnermeldeamt Brandenburg Wust", 
            "zipcode": "14776", 
            "state": "Brandenburg", 
            "street": "Wuster Stra\u00dfe 80", 
            "lat": "52.4144218", 
            "lng": "12.608932"
        }
    },